"stop_id","stop_code","stop_name","stop_lat","stop_lon","zone_id","stop_url","location_type","parent_station","stop_timezone","wheelchair_boarding"
"810110","810110","GRIFO SAN IGNACIO A","-12.1740888","-76.9889388","","","0","","America/Lima","0"
"810111","810111","ESCUELA PNP A","-12.174555","-76.9932369","","","0","","America/Lima","0"
"810112","810112","AV SOL A","-12.178203","-76.996383","","","0","","America/Lima","0"
"810113","810113","MERCADO SANTA ROSA A","-12.1823419","-76.9994619","","","0","","America/Lima","0"
"810115","810115","CURVA HUAYLAS","-12.184543","-77.006325","","","0","","America/Lima","0"
"810116","810116","AV. SANTA ANITA A","-12.1870219","-77.0078599","","","0","","America/Lima","0"
"2306","2306","Av. De la revolucion - sn","-11.859935","-77.1250008","","","0","","America/Lima","0"
"2305","2305","Av. Cuzco - sn","-11.861105","-77.1283769","","","0","","America/Lima","0"
"2304","2304","Av. Arequipa - sn","-11.8575388","-77.1284927","","","0","","America/Lima","0"
"2302","2302","Av. Huaura - sn","-11.8556158","-77.1285269","","","0","","America/Lima","0"
"2301","2301","Av. Trujillo - sn","-11.8536097","-77.1285827","","","0","","America/Lima","0"
"2300","2300","Ovalo Tumbes - sn","-11.8518583","-77.128245","","","0","","America/Lima","0"
"810106","810106","MOLL DEL SUR","-12.1521611","-76.9838161","","","0","","America/Lima","0"
"810107","810107","AMUATA","-12.1615319","-76.98222","","","0","","America/Lima","0"
"810108","810108","PTE. ALIPIO A","-12.1694188","-76.9803638","","","0","","America/Lima","0"
"810109","810109","CEMENTERIO PNP A","-12.17235","-76.9831738","","","0","","America/Lima","0"
"2309","2309","Mercado Sr Milagros - sn","-11.8774808","-77.1286177","","","0","","America/Lima","0"
"2308","2308","Beltran - sn","-11.8726377","-77.1273727","","","0","","America/Lima","0"
"2307","2307","Pavayacu - sn","-11.8711288","-77.1254877","","","0","","America/Lima","0"
"810120","810120","PLAZA VEA A","-12.19701","-77.011198","","","0","","America/Lima","0"
"810121","810121","TIENDA VERDE A","-12.20108","-77.0141699","","","0","","America/Lima","0"
"810122","810122","LOS INCAS A","-12.2023588","-77.0150911","","","0","","America/Lima","0"
"810123","810123","MARQUEZ A","-12.2040361","-77.0163019","","","0","","America/Lima","0"
"810124","810124","BALLESTAS A","-12.2059719","-77.0176811","","","0","","America/Lima","0"
"810125","810125","ESPAÑOLA A","-12.2077088","-77.01531","","","0","","America/Lima","0"
"810126","810126","TRANQUERA A","-12.209065","-77.0133788","","","0","","America/Lima","0"
"810127","810127","TRILCE A","-12.2049188","-77.0091088","","","0","","America/Lima","0"
"1","1","Ceres - EO","-12.034183","-76.9258997","","","0","","America/Lima","0"
"2","2","Berlin - EO","-12.0381919","-76.924445","","","0","","America/Lima","0"
"2315","2315","Av. Tacna - sn","-11.8594258","-77.1284638","","","0","","America/Lima","0"
"2314","2314","Brisas - sn","-11.8495327","-77.1234858","","","0","","America/Lima","0"
"3","3","Holanda - EO","-12.0421627","-76.9257527","","","0","","America/Lima","0"
"2313","2313","Brisas - ns","-11.8498208","-77.1235158","","","0","","America/Lima","0"
"4","4","Vista Alegre - EO","-12.0432","-76.93009","","","0","","America/Lima","0"
"2312","2312","Mercado - sn","-11.8665138","-77.1436169","","","0","","America/Lima","0"
"5","5","Paris - EO","-12.0466977","-76.9360308","","","0","","America/Lima","0"
"6","6","Monumental - EO","-12.06052","-76.93837","","","0","","America/Lima","0"
"2311","2311","Av. La playa - sn","-11.8723308","-77.1386547","","","0","","America/Lima","0"
"7","7","Huarochiri - EO","-12.0639527","-76.93965","","","0","","America/Lima","0"
"2310","2310","Av. Los Heroes - sn","-11.8761708","-77.1354097","","","0","","America/Lima","0"
"810117","810117","LA CHIRA A","-12.1898969","-77.0067938","","","0","","America/Lima","0"
"8","8","Flora Tristan - EO","-12.0664338","-76.9438777","","","0","","America/Lima","0"
"9","9","Ingenieros - EO","-12.0684938","-76.9483958","","","0","","America/Lima","0"
"810119","810119","LOS PINO A","-12.1937149","-77.0089438","","","0","","America/Lima","0"
"327021","327021","SOLEDAD","-12.0904194","-77.0337111","","","0","","America/Lima","0"
"327023","327023","PAZ SOLDAN","-12.0966111","-77.0328111","","","0","","America/Lima","0"
"327022","327022","M.BAÑON","-12.0942611","-77.0331369","","","0","","America/Lima","0"
"327025","327025","R.MORALES","-12.1026805","-77.0318194","","","0","","America/Lima","0"
"327024","327024","CHOQUEHUANCA","-12.099253","-77.0323761","","","0","","America/Lima","0"
"810100","810100","PEDAGOGICO A","-12.1218661","-76.977253","","","0","","America/Lima","0"
"810101","810101","PROSEGUR A","-12.127078","-76.977103","","","0","","America/Lima","0"
"810102","810102","BENAVIDES A","-12.1311088","-76.9783","","","0","","America/Lima","0"
"810103","810103","RICARDO PALMA A","-12.1350711","-76.9799388","","","0","","America/Lima","0"
"810104","810104","TOTTUS A","-12.14568","-76.98209","","","0","","America/Lima","0"
"810105","810105","PTE ATOCONGO A","-12.1495969","-76.9833538","","","0","","America/Lima","0"
"327016","327016","PARDO Y ALIAGA - SN","-12.1075286","-77.0370327","","","0","","America/Lima","0"
"327017","327017","CONDE DE LA MONCLOVA - SN","-12.1031402","-77.0368611","","","0","","America/Lima","0"
"810153","810153","BENAVIDES B","-12.131568","-76.9783099","","","0","","America/Lima","0"
"810154","810154","PROSEGUR B","-12.1275661","-76.9769169","","","0","","America/Lima","0"
"810155","810155","PEDAGOGICO B","-12.1222511","-76.977065","","","0","","America/Lima","0"
"810156","810156","VIVANCO B","-12.1145361","-76.977605","","","0","","America/Lima","0"
"810157","810157","PRIMAVERA B","-12.1114761","-76.9779061","","","0","","America/Lima","0"
"810158","810158","PENTAGONITO B","-12.1027738","-76.979208","","","0","","America/Lima","0"
"810159","810159","PUERTA CENTRO B","-12.0928261","-76.9804711","","","0","","America/Lima","0"
"810150","810150","ATOCONGO B","-12.1496669","-76.9830761","","","0","","America/Lima","0"
"810151","810151","TOTTUS B","-12.145983","-76.9819669","","","0","","America/Lima","0"
"810152","810152","RICARDO PALMA","-12.135578","-76.979875","","","0","","America/Lima","0"
"514207","514207","Cl 121 entre Cl 121D y Kr 28D","3.4088313","-76.4736508","","","0","","America/Lima","0"
"514206","514206","Cl 121 entre Cl 122A3 y 122A2","3.4068422","-76.4747716","","","0","","America/Lima","0"
"327005","327005","CHOQUEHUANCA - NS","-12.0985405","-77.0370191","","","0","","America/Lima","0"
"327007","327007","DASSO - NS","-12.1064722","-77.0394861","","","0","","America/Lima","0"
"327006","327006","ANTONIO PEZET - NS","-12.1029488","-77.0387327","","","0","","America/Lima","0"
"810164","810164","PINOS B","-12.054","-76.97512","","","0","","America/Lima","0"
"810165","810165","PTE AZUL B","-12.0509038","-76.9770238","","","0","","America/Lima","0"
"810166","810166","PERALES B","-12.0473219","-76.9809988","","","0","","America/Lima","0"
"810167","810167","NOCHETO B","-12.0440638","-76.9846811","","","0","","America/Lima","0"
"810168","810168","ATARJEA B","-12.0414","-76.98709","","","0","","America/Lima","0"
"810169","810169","PRIALE B","-12.03379","-76.9900769","","","0","","America/Lima","0"
"810160","810160","JAVIER PRADO B","-12.083783","-76.98069","","","0","","America/Lima","0"
"810161","810161","PALMERAS B","-12.07381","-76.97402","","","0","","America/Lima","0"
"810162","810162","PTE.SANTA ROSA B","-12.0678369","-76.971623","","","0","","America/Lima","0"
"810163","810163","SANTA ANITA B.","-12.05938","-76.97272","","","0","","America/Lima","0"
"600","600","Aro - OE","-12.0064419","-76.8500908","","","0","","America/Lima","0"
"601","601","Grifo Bimer - OE","-12.0060258","-76.84789","","","0","","America/Lima","0"
"602","602","Horacio -OE","-12.004785","-76.8445497","","","0","","America/Lima","0"
"603","603","Grifo Primax - OE","-12.0022719","-76.8414169","","","0","","America/Lima","0"
"604","604","Entrada de Huaycan - NS","-12.00017","-76.8389219","","","0","","America/Lima","0"
"605","605","Aviacion inicio 201 OE","-12.0875411","-77.0024655","","","0","","America/Lima","0"
"606","606","Petit Thouars OE","-12.0922686","-77.0327966","","","0","","America/Lima","0"
"607","607","Cruce - NS","-12.0065169","-76.8352608","","","0","","America/Lima","0"
"608","608","Av. los Incas - NS","-12.00877","-76.8317038","","","0","","America/Lima","0"
"609","609","Seguro - NS","-12.0101169","-76.8297308","","","0","","America/Lima","0"
"810131","810131","TRILCE B","-12.2047369","-77.0090938","","","0","","America/Lima","0"
"810132","810132","TRANQUERA B","-12.206243","-77.0108588","","","0","","America/Lima","0"
"810133","810133","ESPAÑOLA B","-12.2079338","-77.0148461","","","0","","America/Lima","0"
"810134","810134","BALLESTAS B","-12.20613","-77.0175211","","","0","","America/Lima","0"
"810135","810135","LOS CEDROS B","-12.2031269","-77.0154788","","","0","","America/Lima","0"
"810136","810136","PLAZA VEA B","-12.1969","-77.01096","","","0","","America/Lima","0"
"810137","810137","COLEGIO B","-12.19296","-77.00819","","","0","","America/Lima","0"
"810138","810138","CHIRA B","-12.1905","-77.00644","","","0","","America/Lima","0"
"810130","810130","SAN LORENZO B.","-12.2034749","-77.0072919","","","0","","America/Lima","0"
"610","610","Comisaria - NS","-12.0120197","-76.8270327","","","0","","America/Lima","0"
"611","611","Av. 15 de julio - NS","-12.01337","-76.8251108","","","0","","America/Lima","0"
"612","612","Tagore OE 209","-12.0286594","-76.9242041","","","0","","America/Lima","0"
"613","613","Ovalo Santa Rosa - OE","-12.0154325","-76.8188791","","","0","","America/Lima","0"
"810128","810128","CHORRILLOS A","-12.202575","-77.0057988","","","0","","America/Lima","0"
"614","614","Pisco-Grifo Pretroamerica","-13.7172697","-76.20534","","","0","","America/Lima","0"
"810129","810129","SAN MARCOS B","-12.2023188","-77.005513","","","0","","America/Lima","0"
"615","615","Backus EO 209","-12.0492527","-76.9393569","","","0","","America/Lima","0"
"616","616","Plaza San Miguel EO","-12.0779563","-77.0829061","","","0","","America/Lima","0"
"617","617","Mercado Arenera - EO","-12.0075247","-76.8261008","","","0","","America/Lima","0"
"618","618","Precio Uno - EO","-12.0060938","-76.8298258","","","0","","America/Lima","0"
"619","619","Establo - EO","-12.0028088","-76.8320888","","","0","","America/Lima","0"
"810142","810142","AV. SOL B","-12.17852","-76.99644","","","0","","America/Lima","0"
"810143","810143","ESCUELA PNP B","-12.17453","-76.99316","","","0","","America/Lima","0"
"810144","810144","CEMENTERIO PNP B","-12.172473","-76.983143","","","0","","America/Lima","0"
"810145","810145","PTE ALIPIO B","-12.1693061","-76.979658","","","0","","America/Lima","0"
"810146","810146","PEDRO MIOTA B","-12.1672288","-76.9784869","","","0","","America/Lima","0"
"810147","810147","AMAUTA B","-12.1618711","-76.9794299","","","0","","America/Lima","0"
"810148","810148","MALL SUR B","-12.156983","-76.9812388","","","0","","America/Lima","0"
"810149","810149","PROCERES B","-12.1525269","-76.983723","","","0","","America/Lima","0"
"810141","810141","MERCADO SANTA ROSA B","-12.18352","-77.0005","","","0","","America/Lima","0"
"620","620","Huarochiri EO 209","-12.0564158","-76.9442238","","","0","","America/Lima","0"
"621","621","Huarochiri OE 209","-12.0609008","-76.9425719","","","0","","America/Lima","0"
"622","622","Sep Industrial OE 209","-12.0571697","-76.94404","","","0","","America/Lima","0"
"623","623","Mayorazgo 209 OE","-12.0538847","-76.9412027","","","0","","America/Lima","0"
"624","624","Josfel 209 OE","-12.0434358","-76.9364958","","","0","","America/Lima","0"
"810139","810139","AV. SANTA ANITA A","-12.1878411","-77.0076969","","","0","","America/Lima","0"
"625","625","Mayorazgo 209 EO","-12.0524227","-76.9411177","","","0","","America/Lima","0"
"626","626","Josfel 209 EO","-12.04353","-76.9373508","","","0","","America/Lima","0"
"627","627","Tagore EO 209","-12.0294255","-76.9246936","","","0","","America/Lima","0"
"628","628","Soldadura EO 209","-12.0364086","-76.9305127","","","0","","America/Lima","0"
"629","629","Pista Nueva EO 209","-12.0373213","-76.9312691","","","0","","America/Lima","0"
"810197","810197","7 MARISCAL B","-11.9440288","-76.9823061","","","0","","America/Lima","0"
"810198","810198","8 MOTUPE B","-11.941195","-76.9804319","","","0","","America/Lima","0"
"810199","810199","4 MOTUPE B","-11.9390011","-76.9768788","","","0","","America/Lima","0"
"810190","810190","ESTACION SANTA ROSA B..","-11.96912","-76.9941","","","0","","America/Lima","0"
"810191","810191","14 WIESE B","-11.9659538","-76.9917711","","","0","","America/Lima","0"
"500402","500402","San Hilarion","-11.9935655","-77.0105294","","","0","","America/Lima","0"
"810193","810193","BAYOVAR B","-11.9598611","-76.9874561","","","0","","America/Lima","0"
"810194","810194","SEOANE B","-11.9556238","-76.9856338","","","0","","America/Lima","0"
"810195","810195","ELEKTRA B","-11.9509911","-76.987215","","","0","","America/Lima","0"
"810196","810196","5 MARISCAL B","-11.948135","-76.9851311","","","0","","America/Lima","0"
"630","630","Backus OE 209","-12.0498458","-76.9389358","","","0","","America/Lima","0"
"631","631","Puruchuco OE 209","-12.0393569","-76.9328127","","","0","","America/Lima","0"
"632","632","Ceres OE 209","-12.0328388","-76.9271719","","","0","","America/Lima","0"
"633","633","Pista Nueva OE 209","-12.0374677","-76.9312147","","","0","","America/Lima","0"
"634","634","Soldadura OE209","-12.0364858","-76.9303797","","","0","","America/Lima","0"
"635","635","Los angeles OE209","-12.0345458","-76.9286169","","","0","","America/Lima","0"
"636","636","Constructores EO209","-12.06043","-76.9425488","","","0","","America/Lima","0"
"637","637","Parque La Molina EO204","-12.0763897","-76.9341888","","","0","","America/Lima","0"
"638","638","Parque La Molina OE204","-12.0762569","-76.9345477","","","0","","America/Lima","0"
"639","639","Pisco-Alipio Ponce con Concordia","-13.7074897","-76.20462","","","0","","America/Lima","0"
"640","640","Pisco-Barrio Nuevo con Ayacucho","-13.7073997","-76.2015397","","","0","","America/Lima","0"
"641","641","Pisco-Barrio Nuevo con San Clemente","-13.7074997","-76.19898","","","0","","America/Lima","0"
"500400","500400","Soyuz","-12.0758819","-77.0267861","","","0","","America/Lima","0"
"642","642","Pisco-Barrio nuevo con Ismael Aspillaga","-13.7073997","-76.1968997","","","0","","America/Lima","0"
"643","643","Univ de Lima EO 206","-12.08355","-76.9728","","","0","","America/Lima","0"
"644","644","Evitamiento EO 206","-12.08459","-76.98014","","","0","","America/Lima","0"
"645","645","Masias EO 206","-12.0910397","-77.0253697","","","0","","America/Lima","0"
"646","646","Orquideas EO 206","-12.0914047","-77.0279377","","","0","","America/Lima","0"
"647","647","Salaverry EO 206","-12.09313","-77.05292","","","0","","America/Lima","0"
"648","648","Escobedo EO 206","-12.09018","-77.0573397","","","0","","America/Lima","0"
"649","649","La Mar OE 206","-12.0746266","-77.0795736","","","0","","America/Lima","0"
"810175","810175","HUIRACOCHA B","-12.00841","-77.00428","","","0","","America/Lima","0"
"810176","810176","LA HACIENDA B","-12.0068338","-77.0052888","","","0","","America/Lima","0"
"810177","810177","12 PROCERES","-12.00306","-77.00765","","","0","","America/Lima","0"
"810178","810178","15 PROCERES B","-12.0007811","-77.0085911","","","0","","America/Lima","0"
"810179","810179","ESTACION LOS POSTES B","-11.9977699","-77.0093788","","","0","","America/Lima","0"
"500425","500425","LOS CIRUELOS","-11.9831749","-77.0060391","","","0","","America/Lima","0"
"500424","500424","DEL PARQUE A","-11.9783422","-77.0039661","","","0","","America/Lima","0"
"810170","810170","PTE NUEVO B","-12.02904","-76.99957","","","0","","America/Lima","0"
"810171","810171","CHIMU B","-12.0256188","-77.0003319","","","0","","America/Lima","0"
"810172","810172","CAJAMARQUILLA B","-12.02272","-77.000738","","","0","","America/Lima","0"
"810173","810173","ASCARRUZ B","-12.0161969","-77.0018361","","","0","","America/Lima","0"
"500428","500428","PARQUE ZONAL","-12.0109138","-77.0030861","","","0","","America/Lima","0"
"810174","810174","CELIMAB","-12.0136969","-77.0018888","","","0","","America/Lima","0"
"500427","500427","BRITANICO","-12.0092483","-77.0041013","","","0","","America/Lima","0"
"650","650","Marina & Universitaria OE 206","-12.0783297","-77.0814197","","","0","","America/Lima","0"
"651","651","Sauces OE 206","-12.0930097","-77.03794","","","0","","America/Lima","0"
"652","652","Arenales OE 206","-12.0925997","-77.0347197","","","0","","America/Lima","0"
"653","653","Orquideas OE 206","-12.0916997","-77.0284097","","","0","","America/Lima","0"
"654","654","Masias OE 206","-12.0914","-77.0261897","","","0","","America/Lima","0"
"500432","500432","LAS AMATITAS","-11.9999808","-77.0087375","","","0","","America/Lima","0"
"655","655","Guardia Civil OE 206","-12.0888797","-77.0079197","","","0","","America/Lima","0"
"656","656","Aviacion OE 206","-12.08852","-77.0047297","","","0","","America/Lima","0"
"657","657","Univ de lima OE 206","-12.0838063","-76.9719044","","","0","","America/Lima","0"
"658","658","Camacho OE 206","-12.0815297","-76.9672427","","","0","","America/Lima","0"
"659","659","Universidad de Lima EO 209","-12.08355","-76.9728","","","0","","America/Lima","0"
"810186","810186","CANTO REY B","-11.9784","-77.00396","","","0","","America/Lima","0"
"325226","325226","Guardia Republicana","-12.0297469","-77.0356661","","","0","","America/Lima","0"
"325227","325227","Pizarro - NS","-12.0329719","-77.0382211","","","0","","America/Lima","0"
"810187","810187","METRO 8","-11.97601","-77.00165","","","0","","America/Lima","0"
"325228","325228","Arancibia - SN","-12.0341","-77.0382619","","","0","","America/Lima","0"
"810188","810188","ESTACION SAN MARTIN","-11.975018","-77.000408","","","0","","America/Lima","0"
"810189","810189","AV. SAN MARTIN B","-11.9724111","-76.9967438","","","0","","America/Lima","0"
"500415","500415","Lima","-12.0250988","-77.0115569","","","0","","America/Lima","0"
"810180","810180","17 PROCERES B","-11.993725","-77.010565","","","0","","America/Lima","0"
"810181","810181","20PROCERES B","-11.9901261","-77.0107249","","","0","","America/Lima","0"
"500419","500419","AUGUSTO B. LEGUIA","-11.9493466","-76.9802133","","","0","","America/Lima","0"
"810182","810182","21PROCERES B","-11.987483","-77.00842","","","0","","America/Lima","0"
"810183","810183","ESTACION SAN CARLOS B","-11.9850549","-77.0066969","","","0","","America/Lima","0"
"500418","500418","CALLE 3","-11.942758","-76.9756536","","","0","","America/Lima","0"
"810184","810184","DURAZNOS","-11.9813949","-77.0054638","","","0","","America/Lima","0"
"500417","500417","SANTA MARIA","-11.9418994","-76.9750602","","","0","","America/Lima","0"
"500416","500416","La Doce","-12.003003","-77.0080261","","","0","","America/Lima","0"
"660","660","Evitamiento EO 209","-12.08459","-76.98014","","","0","","America/Lima","0"
"661","661","Masias EO 209","-12.0910397","-77.0253697","","","0","","America/Lima","0"
"662","662","Orquideas EO 209","-12.0914047","-77.0279377","","","0","","America/Lima","0"
"663","663","Salaverry EO 209","-12.09313","-77.05292","","","0","","America/Lima","0"
"664","664","Escobedo EO 209","-12.09018","-77.0573397","","","0","","America/Lima","0"
"500422","500422","CARCAMO","-11.95289","-76.9824316","","","0","","America/Lima","0"
"665","665","LaMar OE 209","-12.0746266","-77.0795736","","","0","","America/Lima","0"
"500421","500421","CIRO ALEGRIA","-11.9517791","-76.981893","","","0","","America/Lima","0"
"666","666","Marina&Universitaria OE 209","-12.0783297","-77.0814197","","","0","","America/Lima","0"
"667","667","Sauces OE 209","-12.0930097","-77.03794","","","0","","America/Lima","0"
"668","668","Arenales OE 209","-12.0925997","-77.0347197","","","0","","America/Lima","0"
"669","669","Orquideas OE 209","-12.0916997","-77.0284097","","","0","","America/Lima","0"
"325231","325231","Amancaes - NS","-12.0210438","-77.0297911","","","0","","America/Lima","0"
"325233","325233","Patio CTA","-12.022623","-77.037843","","","0","","America/Lima","0"
"325219","325219","ELSOL22","-12.0213888","-77.0296611","","","0","","America/Lima","0"
"670","670","Masias OE 209","-12.0914","-77.0261897","","","0","","America/Lima","0"
"671","671","GuardiaCivil OE 209","-12.0888797","-77.0079197","","","0","","America/Lima","0"
"672","672","Aviacion OE 209","-12.08852","-77.0047297","","","0","","America/Lima","0"
"673","673","Universidad de Lima OE 209","-12.0838063","-76.9719044","","","0","","America/Lima","0"
"674","674","Camacho OE 209","-12.0815297","-76.9672427","","","0","","America/Lima","0"
"675","675","Universidad de Lima EO 204","-12.08355","-76.9728","","","0","","America/Lima","0"
"676","676","Evitamiento EO 204","-12.08459","-76.98014","","","0","","America/Lima","0"
"677","677","Masias EO 204","-12.0910397","-77.0253697","","","0","","America/Lima","0"
"678","678","Orquideas EO 204","-12.0914047","-77.0279377","","","0","","America/Lima","0"
"679","679","Salaverry EO 204","-12.09313","-77.05292","","","0","","America/Lima","0"
"325220","325220","CLE102","-12.0188611","-77.0283694","","","0","","America/Lima","0"
"325224","325224","PASAJE","-12.0093","-77.0344694","","","0","","America/Lima","0"
"325225","325225","MONAC","-12.0076111","-77.0358888","","","0","","America/Lima","0"
"500439","500439","CALLE 15","-11.9431558","-76.9757133","","","0","","America/Lima","0"
"680","680","Escobedo EO 204","-12.09018","-77.0573397","","","0","","America/Lima","0"
"681","681","Sauces OE 204","-12.0930097","-77.03794","","","0","","America/Lima","0"
"682","682","Arenales OE 204","-12.0925997","-77.0347197","","","0","","America/Lima","0"
"683","683","Rafael Escado OE 204","-12.0774","-77.09367","","","0","","America/Lima","0"
"684","684","Parque de las Leyendas OE 204","-12.0782297","-77.0880997","","","0","","America/Lima","0"
"200","200","Benavides - SN","-12.1314738","-76.9781377","","","0","","America/Lima","0"
"201","201","Primavera - SN","-12.1119841","-76.9778375","","","0","","America/Lima","0"
"685","685","Orquideas OE 204","-12.0916997","-77.0284097","","","0","","America/Lima","0"
"202","202","Hipodromo - SN","-12.09323","-76.9804","","","0","","America/Lima","0"
"686","686","Masias OE 204","-12.0914","-77.0261897","","","0","","America/Lima","0"
"687","687","Guardia Civil OE 204","-12.0888797","-77.0079197","","","0","","America/Lima","0"
"203","203","Javier Prado - SN","-12.0835441","-76.9804713","","","0","","America/Lima","0"
"688","688","Aviacion OE 204","-12.08852","-77.0047297","","","0","","America/Lima","0"
"204","204","Puente Santa Rosa - SN","-12.0645019","-76.9711375","","","0","","America/Lima","0"
"205","205","Puente Santa Anita - SN","-12.0596391","-76.9726019","","","0","","America/Lima","0"
"689","689","Universidad de Lima OE 204","-12.0838063","-76.9719044","","","0","","America/Lima","0"
"206","206","Puente Azul - SN","-12.0507677","-76.9770705","","","0","","America/Lima","0"
"207","207","Perales - SN","-12.0477197","-76.9804297","","","0","","America/Lima","0"
"208","208","Atarjea - SN","-12.0414558","-76.9870266","","","0","","America/Lima","0"
"209","209","Puente Nuevo - SN","-12.02932","-76.9989497","","","0","","America/Lima","0"
"690","690","Camacho OE 204","-12.0815297","-76.9672427","","","0","","America/Lima","0"
"691","691","Embajada EO 204","-12.095033","-77.0538016","","","0","","America/Lima","0"
"692","692","Juan de Aliaga EO 204","-12.0934163","-77.0589811","","","0","","America/Lima","0"
"693","693","Gonzales Prada EO 204","-12.091458","-77.0637825","","","0","","America/Lima","0"
"694","694","Brasil EO 204","-12.0900455","-77.0655725","","","0","","America/Lima","0"
"695","695","Junin EO 204","-12.089098","-77.0683483","","","0","","America/Lima","0"
"696","696","Libertad EO 204","-12.0837452","-77.0661933","","","0","","America/Lima","0"
"213","213","Acho - OE","-12.0426675","-77.0226144","","","0","","America/Lima","0"
"697","697","Brasil OE 204","-12.0902075","-77.0657266","","","0","","America/Lima","0"
"214","214","Control - SN","-12.0332397","-77.0535397","","","0","","America/Lima","0"
"698","698","Gonzales Prada OE 204","-12.0912783","-77.0643933","","","0","","America/Lima","0"
"699","699","Juan de Aliaga OE 204","-12.0935405","-77.0596286","","","0","","America/Lima","0"
"215","215","Habich - SN","-12.0300502","-77.0569605","","","0","","America/Lima","0"
"325201","325201","SANTOS CHOCANO   -  NS","-12.0241972","-77.0268555","","","0","","America/Lima","0"
"325202","325202","ENCALADA  -  NS","-12.0265027","-77.0284694","","","0","","America/Lima","0"
"325203","325203","ALCAZAR  -  NS","-12.0306027","-77.0294611","","","0","","America/Lima","0"
"222","222","Universitaria - SN","-11.9914","-77.07938","","","0","","America/Lima","0"
"223","223","Los Alisos - SN","-11.9836077","-77.0783188","","","0","","America/Lima","0"
"224","224","Naranjal - SN","-11.9784697","-77.07688","","","0","","America/Lima","0"
"225","225","Huandoy - SN","-11.9766019","-77.0828508","","","0","","America/Lima","0"
"226","226","Canta Callao - SN","-11.9752297","-77.08633","","","0","","America/Lima","0"
"227","227","Mateo Pumacahua - NS","-12.1927597","-76.9616297","","","0","","America/Lima","0"
"228","228","1ero Mayo - NS","-12.19782","-76.9580297","","","0","","America/Lima","0"
"229","229","El Sol - NS","-12.2052897","-76.95363","","","0","","America/Lima","0"
"500929","500929","H. DEL NIÑO","-12.065008","-77.0455161","","","0","","America/Lima","0"
"500928","500928","PLAZA GRAU","-12.0592511","-77.035968","","","0","","America/Lima","0"
"500927","500927","AZCARRU","-12.0157438","-77.0017111","","","0","","America/Lima","0"
"232","232","El Sol - SN","-12.2060469","-76.9526302","","","0","","America/Lima","0"
"233","233","1ero de Mayo - SN","-12.1986797","-76.9570997","","","0","","America/Lima","0"
"234","234","Mateo Pumacahua - SN","-12.1931897","-76.96044","","","0","","America/Lima","0"
"236","236","Los Angeles- EO 209","-12.0343069","-76.9288319","","","0","","America/Lima","0"
"242","242","La mar - EO","-12.075088","-77.0797669","","","0","","America/Lima","0"
"243","243","La mar - OE","-12.0746266","-77.0795736","","","0","","America/Lima","0"
"244","244","America - NS","-12.18397","-76.9751497","","","0","","America/Lima","0"
"245","245","America - SN","-12.1837699","-76.97494","","","0","","America/Lima","0"
"246","246","Mega Plaza - NS","-11.9944","-77.0637497","","","0","","America/Lima","0"
"247","247","Mega Plaza - SN","-11.99496","-77.0630197","","","0","","America/Lima","0"
"248","248","Palao - NS","-12.0221","-77.05928","","","0","","America/Lima","0"
"249","249","Palao - SN","-12.0230997","-77.0586897","","","0","","America/Lima","0"
"250","250","Palmeras - SN","-11.9909997","-77.0712697","","","0","","America/Lima","0"
"251","251","Panamerica - SN","-11.99154","-77.0636097","","","0","","America/Lima","0"
"252","252","Panamericana - NS","-11.9905136","-77.0661788","","","0","","America/Lima","0"
"253","253","Plaza Norte - NS","-12.0074797","-77.0618097","","","0","","America/Lima","0"
"254","254","Plaza Norte - SN","-12.00694","-77.0613","","","0","","America/Lima","0"
"255","255","Santos Chocano - NS","-11.9909097","-77.0688997","","","0","","America/Lima","0"
"256","256","Santos  Chocano - SN","-11.9905897","-77.0686597","","","0","","America/Lima","0"
"257","257","Senati - NS","-11.9986261","-77.0628475","","","0","","America/Lima","0"
"258","258","Senati - SN","-11.99876","-77.06259","","","0","","America/Lima","0"
"259","259","Arriba Peru - NS","-12.2105822","-76.9503502","","","0","","America/Lima","0"
"500938","500938","HÉROES DEL CENEPA","-11.960633","-76.9843069","","","0","","America/Lima","0"
"500937","500937","JR. SANTA ROSA","-12.0513961","-77.0284361","","","0","","America/Lima","0"
"241164","241164","Huallaga","-12.0494088","-77.0274538","","","0","","America/Lima","0"
"241165","241165","Jiron Puno","-12.053068","-77.0295388","","","0","","America/Lima","0"
"500932","500932","DEL PARQUE","-11.977813","-77.003845","","","0","","America/Lima","0"
"500931","500931","CLÍNICA","-11.9589819","-76.9864838","","","0","","America/Lima","0"
"500930","500930","GARCILAZO","-12.060045","-77.03662","","","0","","America/Lima","0"
"260","260","Juan Velasco Alvarado - NS","-12.2130466","-76.9489019","","","0","","America/Lima","0"
"500935","500935","OV. GRAU","-12.059203","-77.0358219","","","0","","America/Lima","0"
"261","261","Jorge Chavez - NS","-12.2157886","-76.9471905","","","0","","America/Lima","0"
"262","262","Cesar Vallejo - NS","-12.2179855","-76.9459247","","","0","","America/Lima","0"
"500934","500934","LAS SABILAS","-11.9996861","-77.009128","","","0","","America/Lima","0"
"263","263","3 de Octubre - NS","-12.2230866","-76.9428936","","","0","","America/Lima","0"
"500933","500933","LOS CIRUELOS","-11.982735","-77.0061011","","","0","","America/Lima","0"
"264","264","Jose Carlos Mariategui - NS","-12.2254091","-76.9414936","","","0","","America/Lima","0"
"265","265","Jose Olaya - NS","-12.2308041","-76.9382641","","","0","","America/Lima","0"
"266","266","200 Millas - NS","-12.2340019","-76.9352441","","","0","","America/Lima","0"
"267","267","Parque Zonal - NS","-12.23122","-76.93177","","","0","","America/Lima","0"
"268","268","Parque Zonal - SN","-12.229635","-76.9290052","","","0","","America/Lima","0"
"269","269","200 Millas - SN","-12.2338527","-76.9347508","","","0","","America/Lima","0"
"270","270","Jose Olaya - SN","-12.2312397","-76.93746","","","0","","America/Lima","0"
"271","271","Jose Carlos Mariategui - SN","-12.226255","-76.9405058","","","0","","America/Lima","0"
"272","272","3 de Octubre - SN","-12.2236338","-76.9420519","","","0","","America/Lima","0"
"273","273","Cesar Vallejo - SN","-12.2185675","-76.9451147","","","0","","America/Lima","0"
"274","274","Jorge Chavez - SN","-12.2160402","-76.9466755","","","0","","America/Lima","0"
"275","275","Juan Velasco Alvarado - SN","-12.2138758","-76.947895","","","0","","America/Lima","0"
"276","276","Arriba Peru - SN","-12.2110647","-76.9496422","","","0","","America/Lima","0"
"277","277","Pentagonito - NS","-12.1029625","-76.9793986","","","0","","America/Lima","0"
"278","278","Pentagonito - SN","-12.1029311","-76.979125","","","0","","America/Lima","0"
"279","279","Proceres - NS","-12.1523558","-76.9839938","","","0","","America/Lima","0"
"280","280","Proceres - SN","-12.1526822","-76.9835988","","","0","","America/Lima","0"
"281","281","Cayetano - NS","-12.0258597","-77.0588097","","","0","","America/Lima","0"
"282","282","Cayetano - SN","-12.0257369","-77.0583169","","","0","","America/Lima","0"
"283","283","Mantaro - OE","-12.1014719","-76.942908","","","0","","America/Lima","0"
"284","284","castilla - OE","-12.1054638","-76.9409138","","","0","","America/Lima","0"
"285","285","Chan Chan - OE","-12.1101469","-76.9386997","","","0","","America/Lima","0"
"286","286","Santa Maria - OE","-12.1139388","-76.9365941","","","0","","America/Lima","0"
"287","287","Centenario - EO","-12.0693305","-76.9377108","","","0","","America/Lima","0"
"288","288","Huarochiri(Melgarejo) - OE","-12.0647191","-76.9393388","","","0","","America/Lima","0"
"289","289","Asuncio - EO","-12.0670108","-76.9387888","","","0","","America/Lima","0"
"290","290","Aruba - OE","-12.0709805","-76.9376108","","","0","","America/Lima","0"
"291","291","Ferreteria - ns","-11.96903","-77.0753008","","","0","","America/Lima","0"
"292","292","Av. rio maranon - ns","-11.9716708","-77.0759688","","","0","","America/Lima","0"
"293","293","Av. las palmeras - ns","-11.9722619","-77.0727608","","","0","","America/Lima","0"
"294","294","Panaderia palmeras - ns","-11.9739577","-77.0726208","","","0","","America/Lima","0"
"295","295","Av. naranjal - ns","-11.9782819","-77.0724819","","","0","","America/Lima","0"
"296","296","Calle 7 - ns","-11.9799419","-77.0724408","","","0","","America/Lima","0"
"297","297","Posta - ns","-11.9817219","-77.0724588","","","0","","America/Lima","0"
"298","298","Av. los alisos - ns","-11.9834438","-77.0724347","","","0","","America/Lima","0"
"299","299","Pollos - ns","-11.9865238","-77.0724919","","","0","","America/Lima","0"
"514246","514246","Cl 123 entre Kr 28D y 28D1","3.4066841","-76.4706477","","","0","","America/Lima","0"
"318159","318159","ANGA","-12.1135194","-77.0299888","","","0","","America/Lima","0"
"318156","318156","TERUE","-12.1074694","-77.0309888","","","0","","America/Lima","0"
"514288","514288","Kr 28D entre Cl 113 y 114","3.4105275","-76.475833","","","0","","America/Lima","0"
"330228","330228","Las Calezas","-12.0287919","-77.0315641","","","0","","America/Lima","0"
"330229","330229","Anton Sanchez","-12.0303283","-77.0293494","","","0","","America/Lima","0"
"330224","330224","Cajatambo","-12.0283736","-77.0278191","","","0","","America/Lima","0"
"330220","330220","Barreda y Aguilar","-12.026105","-77.0289413","","","0","","America/Lima","0"
"330221","330221","Alcazar","-12.0285258","-77.0311419","","","0","","America/Lima","0"
"318110","318110","2 DE MAYO","-12.1177411","-77.0292738","","","0","","America/Lima","0"
"318113","318113","AMANCAES  -  NS (BENTIN)","-12.0266027","-77.033925","","","0","","America/Lima","0"
"327058","327058","JUAN DE ARONA","-12.0973888","-77.0325","","","0","","America/Lima","0"
"327057","327057","LA HABANA","-12.099958","-77.032108","","","0","","America/Lima","0"
"327059","327059","OLAVIDE","-12.09395","-77.0330111","","","0","","America/Lima","0"
"500376","500376","VENUS A","-12.0938205","-77.0693497","","","0","","America/Lima","0"
"327164","327164","ALCED2","-12.0850561","-77.0343169","","","0","","America/Lima","0"
"500375","500375","Hospital PNP","-12.0842261","-77.0613824","","","0","","America/Lima","0"
"500358","500358","Montevideo","-12.057903","-77.0305169","","","0","","America/Lima","0"
"327152","327152","RISSO","-12.0851911","-77.0344688","","","0","","America/Lima","0"
"500399","500399","Javier Prado","-12.090798","-77.029955","","","0","","America/Lima","0"
"500398","500398","Seoane","-11.9559538","-76.9857869","","","0","","America/Lima","0"
"810206","810206","GRIFO B","-12.0210544","-77.0005661","","","0","","America/Lima","0"
"500391","500391","La Virgen","-12.096243","-77.0712636","","","0","","America/Lima","0"
"500390","500390","Colegio","-12.0823188","-77.0598013","","","0","","America/Lima","0"
"500379","500379","Estacion Mexico","-12.0773069","-77.0293341","","","0","","America/Lima","0"
"500385","500385","Encinas","-12.021423","-77.00611","","","0","","America/Lima","0"
"500383","500383","Javier Prado","-12.0925608","-77.0319869","","","0","","America/Lima","0"
"500389","500389","Ovalo","-12.0803344","-77.0581744","","","0","","America/Lima","0"
"500388","500388","La Dieciocho","-12.0782344","-77.0564397","","","0","","America/Lima","0"
"500387","500387","La Doce","-12.0719063","-77.0512038","","","0","","America/Lima","0"
"700","700","Embajada OE 204","-12.0951486","-77.0547152","","","0","","America/Lima","0"
"500386","500386","La Nueve","-12.0695647","-77.0491827","","","0","","America/Lima","0"
"701","701","Puente  Primavera -OE","-12.0328858","-77.0067547","","","0","","America/Lima","0"
"703","703","Calle 62 EO","-12.1164586","-76.8729522","","","0","","America/Lima","0"
"706","706","Union EO","-12.1066563","-76.8754166","","","0","","America/Lima","0"
"710","710","Paracas-Hotel Golf","-13.84021","-76.2566997","","","0","","America/Lima","0"
"711","711","Los Ficus OE","-12.0902058","-76.8808969","","","0","","America/Lima","0"
"712","712","Union OE","-12.1060416","-76.8758588","","","0","","America/Lima","0"
"713","713","Paracas-Hotel Golf2","-13.8402297","-76.2567597","","","0","","America/Lima","0"
"714","714","Acho ns","-12.0430805","-77.0224769","","","0","","America/Lima","0"
"514569","514569","Kr 28F entre Cl 122 y 121B","3.4036675","-76.473823","","","0","","America/Lima","0"
"715","715","Av. ancon - sn","-11.8304347","-77.1152555","","","0","","America/Lima","0"
"719","719","Huertos - EO 204","-12.1234038","-76.8723188","","","0","","America/Lima","0"
"2001","2001","2001","-11.9836397","-76.82168","","","0","","America/Lima","0"
"720","720","Grifo - EO 204","-12.1196852","-76.8726661","","","0","","America/Lima","0"
"721","721","Tres MarÃ­as - EO 204","-12.1135375","-76.8734969","","","0","","America/Lima","0"
"722","722","Calle. 39 - EO 204","-12.1088452","-76.8747569","","","0","","America/Lima","0"
"723","723","Naranjos - EO 204","-12.1030075","-76.8769783","","","0","","America/Lima","0"
"724","724","Uno - EO 204","-12.0993644","-76.8791686","","","0","","America/Lima","0"
"725","725","San CristÃ³bal - EO 204","-12.0945722","-76.8812186","","","0","","America/Lima","0"
"726","726","Ecoparque - EO 204","-12.0913405","-76.8815738","","","0","","America/Lima","0"
"727","727","Casuarinas - EO 204","-12.0892766","-76.87928","","","0","","America/Lima","0"
"728","728","Calle. 8 - EO 204","-12.0891583","-76.8781669","","","0","","America/Lima","0"
"729","729","Calle. 15 - EO 204","-12.0887311","-76.8753761","","","0","","America/Lima","0"
"2012","2012","2012","-12.0113297","-76.89185","","","0","","America/Lima","0"
"2011","2011","2011","-12.00807","-76.88132","","","0","","America/Lima","0"
"2010","2010","2010","-12.0067097","-76.8741797","","","0","","America/Lima","0"
"2009","2009","2009","-12.0056997","-76.8641497","","","0","","America/Lima","0"
"2008","2008","2008","-12.0037697","-76.86243","","","0","","America/Lima","0"
"2007","2007","2007","-12.0019797","-76.8591397","","","0","","America/Lima","0"
"2006","2006","2006","-12.0005197","-76.8533297","","","0","","America/Lima","0"
"730","730","Avenida2 - EO 204","-12.0885275","-76.8741791","","","0","","America/Lima","0"
"2005","2005","2005","-11.9989397","-76.84698","","","0","","America/Lima","0"
"2004","2004","2004","-11.9939097","-76.84103","","","0","","America/Lima","0"
"731","731","Enrique Palacios - EO 204","-12.0885377","-76.8714772","","","0","","America/Lima","0"
"2003","2003","2003","-11.9893997","-76.83547","","","0","","America/Lima","0"
"732","732","Ovalo San Juan Bautista - EO 204","-12.0889169","-76.8693127","","","0","","America/Lima","0"
"733","733","Ensenada - EO 204","-12.0876844","-76.8684772","","","0","","America/Lima","0"
"2002","2002","2002","-11.987","-76.8304797","","","0","","America/Lima","0"
"734","734","San Juan Bautista 2 - OE 204","-12.0869025","-76.8683847","","","0","","America/Lima","0"
"735","735","Ovalo San Juan Bautista - OE 204","-12.0882855","-76.8686297","","","0","","America/Lima","0"
"736","736","Enrique Palacios - OE 204","-12.088455","-76.8713388","","","0","","America/Lima","0"
"737","737","Girek - OE 204","-12.0883619","-76.8734586","","","0","","America/Lima","0"
"738","738","Calle. 15 - OE","-12.0886486","-76.8751755","","","0","","America/Lima","0"
"739","739","Parque AlbarracÃ­n - OE 204","-12.0889494","-76.877105","","","0","","America/Lima","0"
"2023","2023","2023","-11.98963","-76.8355397","","","0","","America/Lima","0"
"2022","2022","2022","-11.9940897","-76.84112","","","0","","America/Lima","0"
"2021","2021","2021","-11.99905","-76.8472797","","","0","","America/Lima","0"
"2020","2020","2020","-12.00059","-76.8535497","","","0","","America/Lima","0"
"2019","2019","2019","-12.0020797","-76.85935","","","0","","America/Lima","0"
"2018","2018","2018","-12.0039897","-76.86243","","","0","","America/Lima","0"
"2017","2017","2017","-12.0059","-76.8642497","","","0","","America/Lima","0"
"740","740","Calle. 8 - OE 204","-12.0891158","-76.8781713","","","0","","America/Lima","0"
"741","741","San CristÃ³bal - OE 204","-12.0942105","-76.8813291","","","0","","America/Lima","0"
"2016","2016","2016","-12.0069497","-76.8743597","","","0","","America/Lima","0"
"742","742","Uno - OE 204","-12.0988583","-76.879698","","","0","","America/Lima","0"
"2015","2015","2015","-12.0082197","-76.88136","","","0","","America/Lima","0"
"743","743","Naranjos - OE 204","-12.1025738","-76.8774319","","","0","","America/Lima","0"
"2014","2014","2014","-12.01157","-76.8921297","","","0","","America/Lima","0"
"2013","2013","2013","-12.0140897","-76.900985","","","0","","America/Lima","0"
"744","744","Tres MarÃ­as - OE 204","-12.1125","-76.874043","","","0","","America/Lima","0"
"745","745","Calle. 63 - OE 204","-12.1167638","-76.8731794","","","0","","America/Lima","0"
"746","746","Grifo - OE 204","-12.118778","-76.8730191","","","0","","America/Lima","0"
"747","747","Huertos -OE 204","-12.1229644","-76.8726422","","","0","","America/Lima","0"
"748","748","Calle 39 -OE 204","-12.1091205","-76.8749658","","","0","","America/Lima","0"
"749","749","Calle 10 - EO 204","-12.0890911","-76.8777036","","","0","","America/Lima","0"
"2034","2034","VILLAVICENCIO NS","-12.0881397","-77.0875097","","","0","","America/Lima","0"
"2033","2033","MIRAMAR NS","-12.0886097","-77.0864897","","","0","","America/Lima","0"
"2032","2032","MONRE NS","-12.0890197","-77.0856297","","","0","","America/Lima","0"
"2031","2031","LA PAZ NS","-12.08914","-77.0849297","","","0","","America/Lima","0"
"2030","2030","LIBERTAD NS","-12.0881297","-77.08444","","","0","","America/Lima","0"
"750","750","Pisco-Jardines","-13.72058","-76.22095","","","0","","America/Lima","0"
"751","751","Pisco-Plaza San Andres","-13.7314697","-76.22328","","","0","","America/Lima","0"
"752","752","Chincha-Casa Andina","-13.4139672","-76.1492713","","","0","","America/Lima","0"
"753","753","Chincha-Soyuz","-13.4160597","-76.1405797","","","0","","America/Lima","0"
"754","754","Chincha-Grifo El Volante","-13.42495","-76.1345797","","","0","","America/Lima","0"
"2025","2025","2025","-11.9838197","-76.8217497","","","0","","America/Lima","0"
"755","755","Chincha-Restaurant El Batan","-13.4346086","-76.1346577","","","0","","America/Lima","0"
"2024","2024","2024","-11.9872497","-76.8305397","","","0","","America/Lima","0"
"756","756","Chincha-Textil del Valle (Ca Pedregal)","-13.4513897","-76.1363","","","0","","America/Lima","0"
"757","757","Chincha-Campo Deportivo El Collazos","-13.5384297","-76.13271","","","0","","America/Lima","0"
"758","758","Chincha-Campo Deportivo El Collazos","-13.5388997","-76.1325197","","","0","","America/Lima","0"
"759","759","Chincha-Textil del Valle (Ca Pedregal)","-13.4514397","-76.13621","","","0","","America/Lima","0"
"2045","2045","ECHENIQUE NS","-12.0800997","-77.1051597","","","0","","America/Lima","0"
"2044","2044","AVIACIÃ“N NS","-12.0809997","-77.1033","","","0","","America/Lima","0"
"2043","2043","CALLE 19 NS","-12.0820697","-77.10092","","","0","","America/Lima","0"
"2042","2042","CALLE 16 NS","-12.0831997","-77.09837","","","0","","America/Lima","0"
"2041","2041","GAMARRA NS","-12.0840097","-77.0965997","","","0","","America/Lima","0"
"2040","2040","ALCEDO NS","-12.08458","-77.0953497","","","0","","America/Lima","0"
"760","760","Chincha-Restaurant El Batan","-13.43491","-76.13455","","","0","","America/Lima","0"
"761","761","Chincha-Grifo El Volante","-13.42497","-76.1344697","","","0","","America/Lima","0"
"762","762","Chincha-Soyuz","-13.4159697","-76.14055","","","0","","America/Lima","0"
"2039","2039","CHAVEZ NS","-12.085","-77.0944497","","","0","","America/Lima","0"
"2038","2038","NICOLAS PIEROLA","-12.0857397","-77.09278","","","0","","America/Lima","0"
"763","763","Chincha-Casa Andina","-13.41389","-76.1492097","","","0","","America/Lima","0"
"2037","2037","INCLAN NS","-12.0864397","-77.09125","","","0","","America/Lima","0"
"2036","2036","ESPINAR NS","-12.0872497","-77.0895","","","0","","America/Lima","0"
"765","765","Catolica - NS","-12.0702097","-77.078045","","","0","","America/Lima","0"
"2035","2035","MARISCAL NS","-12.0876997","-77.0885097","","","0","","America/Lima","0"
"766","766","Caqueta N-S","-12.03644","-77.0432833","","","0","","America/Lima","0"
"767","767","Catolica S-N","-12.0687408","-77.0777177","","","0","","America/Lima","0"
"768","768","Caqueta S-N","-12.0366394","-77.0439163","","","0","","America/Lima","0"
"769","769","Arica 11","-11.8530186","-77.0890688","","","0","","America/Lima","0"
"2056","2056","CALLE 1 SN","-12.0883297","-77.0873797","","","0","","America/Lima","0"
"2055","2055","ESPINAR SN","-12.0872397","-77.0897497","","","0","","America/Lima","0"
"2054","2054","INCLAN SN","-12.0864397","-77.0914497","","","0","","America/Lima","0"
"2053","2053","NICOLAS PIEROLA SN","-12.08577","-77.0929697","","","0","","America/Lima","0"
"500302","500302","Bauzate Meza","-12.0646544","-77.0290088","","","0","","America/Lima","0"
"2052","2052","CHAVEZ SN","-12.08488","-77.0949097","","","0","","America/Lima","0"
"2051","2051","GAMARRA SN","-12.0840897","-77.09663","","","0","","America/Lima","0"
"2050","2050","MARANGA SN","-12.0826397","-77.09993","","","0","","America/Lima","0"
"770","770","Plaza yauliyacu","-11.65271","-76.23649","","","0","","America/Lima","0"
"771","771","Bellavista","-11.6908997","-76.26317","","","0","","America/Lima","0"
"773","773","Paradero Chicla","-11.7063297","-76.2673","","","0","","America/Lima","0"
"2049","2049","CALLE20 SN","-12.08153","-77.1023697","","","0","","America/Lima","0"
"774","774","Embarcadero","-11.63714","-76.23187","","","0","","America/Lima","0"
"2048","2048","AVIACIÃ“N SN","-12.0809997","-77.1035797","","","0","","America/Lima","0"
"775","775","Las HS","-11.65347","-76.2204497","","","0","","America/Lima","0"
"2047","2047","ECHENQUE SN","-12.0800997","-77.10541","","","0","","America/Lima","0"
"776","776","Nivel 800","-11.6527297","-76.2281297","","","0","","America/Lima","0"
"2046","2046","SAN MARTIN NS","-12.07914","-77.10689","","","0","","America/Lima","0"
"778","778","Terminal Pominpro","-12.0862169","-76.9861177","","","0","","America/Lima","0"
"779","779","Kimberly Clarck","-12.0179297","-76.8947697","","","0","","America/Lima","0"
"2067","2067","LUIS ALDANA EO","-12.0716497","-77.08938","","","0","","America/Lima","0"
"2066","2066","JOSE DE LA RIVA AGUERO EO","-12.0745797","-77.08329","","","0","","America/Lima","0"
"2065","2065","CHAMAYA EO","-12.0746697","-77.0821397","","","0","","America/Lima","0"
"2064","2064","LA MAR EO","-12.0746597","-77.07956","","","0","","America/Lima","0"
"2063","2063","PRE CATOLICA EO","-12.0714","-77.0782997","","","0","","America/Lima","0"
"2062","2062","SAN MARTIN SN","-12.0790399","-77.10724","","","0","","America/Lima","0"
"2061","2061","LIMA SN","-12.08732","-77.0830397","","","0","","America/Lima","0"
"780","780","Chosica","-11.9357797","-76.69575","","","0","","America/Lima","0"
"2060","2060","TACNA SN","-12.0882297","-77.08341","","","0","","America/Lima","0"
"781","781","Yauliyacu","-11.65065","-76.2352197","","","0","","America/Lima","0"
"782","782","Santa Clara","-12.0143","-76.88518","","","0","","America/Lima","0"
"783","783","Chosica2","-11.9369097","-76.69638","","","0","","America/Lima","0"
"300","300","Telefonica palmeras - ns","-11.9888177","-77.0721588","","","0","","America/Lima","0"
"784","784","Plaza Norte","-12.0051297","-77.05607","","","0","","America/Lima","0"
"301","301","Av. carlos izaguirre - ns","-11.9909158","-77.0718238","","","0","","America/Lima","0"
"785","785","TICLIO","-11.5985077","-76.1926708","","","0","","America/Lima","0"
"302","302","Plaza vea covida - ns","-11.9936088","-77.0718688","","","0","","America/Lima","0"
"786","786","Ovalo Santa Rosa Z-EO","-12.0148836","-76.8189977","","","0","","America/Lima","0"
"2059","2059","ARICA SN","-12.0891","-77.08382","","","0","","America/Lima","0"
"787","787","Ovalo Santa Rosa Z-OE","-12.0140366","-76.8195175","","","0","","America/Lima","0"
"303","303","Mercado covida - ns","-11.9949108","-77.0767788","","","0","","America/Lima","0"
"2058","2058","LA PAZ SN","-12.0899197","-77.08435","","","0","","America/Lima","0"
"2057","2057","SAN LUIS SN","-12.08933","-77.0851797","","","0","","America/Lima","0"
"788","788","COCACHACRA","-11.9134738","-76.5453527","","","0","","America/Lima","0"
"304","304","Telefonica covida - ns","-11.9954508","-77.0807119","","","0","","America/Lima","0"
"789","789","COCACHACRA","-11.9135847","-76.5457869","","","0","","America/Lima","0"
"305","305","Farmacia - ns","-11.9958477","-77.0832997","","","0","","America/Lima","0"
"306","306","Nina maria - ns","-11.9991097","-77.08437","","","0","","America/Lima","0"
"307","307","Ceres 209","-12.03325","-76.9260166","","","0","","America/Lima","0"
"308","308","Sant Rosa 101 (SN)","-11.9887636","-77.080875","","","0","","America/Lima","0"
"309","309","Patio Canta 1 - NS","-11.9640236","-77.0838761","","","0","","America/Lima","0"
"2070","2070","JOSE MARTI EO","-12.0688097","-77.1013597","","","0","","America/Lima","0"
"2078","2078","PRE CATOLICA OE","-12.07305","-77.07831","","","0","","America/Lima","0"
"2077","2077","LA MAR OE","-12.07492","-77.0800397","","","0","","America/Lima","0"
"2076","2076","CHAMAYA OE","-12.0747597","-77.0823297","","","0","","America/Lima","0"
"500325","500325","Canto Rey","-11.978303","-77.0039625","","","0","","America/Lima","0"
"2075","2075","JOSE DE LA RIVA AGUERO OE","-12.07451","-77.08432","","","0","","America/Lima","0"
"2074","2074","CESAR LOPEZ ROJAS OE","-12.07193","-77.0892197","","","0","","America/Lima","0"
"2073","2073","RAFAEL ESCARDO OE","-12.07093","-77.09117","","","0","","America/Lima","0"
"2072","2072","ELMER FAUCETT OE","-12.06962","-77.0975497","","","0","","America/Lima","0"
"790","790","MATUCANA","-11.84295","-76.3838577","","","0","","America/Lima","0"
"500329","500329","La Losa","-12.0262811","-77.0195525","","","0","","America/Lima","0"
"791","791","MATUCANA","-11.8429147","-76.3838877","","","0","","America/Lima","0"
"2071","2071","MANUEL FERREYROS OE","-12.06902","-77.1030497","","","0","","America/Lima","0"
"500328","500328","Comisaria","-12.0257961","-77.0153216","","","0","","America/Lima","0"
"792","792","SAN MATEO","-11.7594669","-76.3006708","","","0","","America/Lima","0"
"500330","500330","Tunel","-12.0276091","-77.0199358","","","0","","America/Lima","0"
"793","793","SAN MATEO","-11.7593488","-76.3005847","","","0","","America/Lima","0"
"794","794","HUANCAYO","-12.04845","-75.2339997","","","0","","America/Lima","0"
"310","310","Patio Canta 2 - SN","-11.9631316","-77.0835005","","","0","","America/Lima","0"
"311","311","MaraÃ±on - NS","-11.9678358","-77.0839024","","","0","","America/Lima","0"
"795","795","CONCEPCION","-11.9177858","-75.3225013","","","0","","America/Lima","0"
"796","796","LA VIRGEN","-11.7960497","-75.4839197","","","0","","America/Lima","0"
"312","312","MaraÃ±on - SN","-11.9685747","-77.0837191","","","0","","America/Lima","0"
"797","797","ACAYA","-11.8045397","-75.5968197","","","0","","America/Lima","0"
"313","313","San Juan Bautista- EO","-12.0858608","-76.8687108","","","0","","America/Lima","0"
"798","798","Pisco-La Villa Frente a la Iglesia2","-13.7136897","-76.1484097","","","0","","America/Lima","0"
"314","314","Paradero 1 1- EO","-12.0853191","-76.8719413","","","0","","America/Lima","0"
"2069","2069","ELMER FAUCETT EO","-12.0692697","-77.0973097","","","0","","America/Lima","0"
"2068","2068","RAFAEL ESCARDO EO","-12.0704897","-77.0913697","","","0","","America/Lima","0"
"799","799","Pisco-Paradero Molinos2","-13.71141","-76.18424","","","0","","America/Lima","0"
"315","315","Paradero 1 2- OE","-12.0854052","-76.872333","","","0","","America/Lima","0"
"316","316","San Juan Bautista- OE","-12.0860441","-76.8688525","","","0","","America/Lima","0"
"317","317","Av. argentina - ns","-12.0463347","-77.0768577","","","0","","America/Lima","0"
"318","318","Clinica San Felipe-EO","-12.0822536","-76.9686588","","","0","","America/Lima","0"
"319","319","Corregidores - OE","-12.1142608","-76.9370077","","","0","","America/Lima","0"
"320","320","Aurelio garcia garcia - ns","-12.0509041","-77.0766019","","","0","","America/Lima","0"
"321","321","Colegio - ns2","-12.0536741","-77.0775461","","","0","","America/Lima","0"
"322","322","Entrada san marcos - ns","-12.0562133","-77.0782325","","","0","","America/Lima","0"
"323","323","Av. republica de venezuela - ns","-12.0588994","-77.0776102","","","0","","America/Lima","0"
"500323","500323","Farmacia Leo","-11.9552611","-76.9914494","","","0","","America/Lima","0"
"324","324","Frutales EO","-12.0763377","-76.9643108","","","0","","America/Lima","0"
"326","326","Pre catolica - ns","-12.0714769","-77.0783627","","","0","","America/Lima","0"
"328","328","Plaza san miguel - ns","-12.0762058","-77.0807088","","","0","","America/Lima","0"
"329","329","Av. de la marina - ns","-12.0779227","-77.08168","","","0","","America/Lima","0"
"500349","500349","Mercado H. del Cenepa","-11.9598111","-76.9842972","","","0","","America/Lima","0"
"500348","500348","Recabarren","-11.9538666","-76.9830972","","","0","","America/Lima","0"
"500347","500347","5 de Mariscal","-11.9506361","-76.9808861","","","0","","America/Lima","0"
"500346","500346","Del Cruce Este","-11.9484311","-76.9793677","","","0","","America/Lima","0"
"330","330","Prol. jiron cuzco - ns","-12.0834811","-77.0827011","","","0","","America/Lima","0"
"331","331","Av. lima magdalena - ns","-12.0868538","-77.0838347","","","0","","America/Lima","0"
"10315","10315","Acho","-12.041828","-77.0223111","","","0","","America/Lima","0"
"332","332","Jiron mariscal ramon castilla -","-12.0880069","-77.0816258","","","0","","America/Lima","0"
"333","333","Revolucion 1 NS","-12.2295597","-76.9289797","","","0","","America/Lima","0"
"334","334","Revolucion 2 SN","-12.2281897","-76.92757","","","0","","America/Lima","0"
"335","335","Central 1 NS","-12.22746","-76.92538","","","0","","America/Lima","0"
"336","336","Central 1 SN","-12.2267897","-76.9251397","","","0","","America/Lima","0"
"337","337","Separadora industrial 1 NS","-12.2260397","-76.9225797","","","0","","America/Lima","0"
"338","338","Separadora industrial 2 SN","-12.22569","-76.9221","","","0","","America/Lima","0"
"339","339","Guardia Republica1-NS","-12.2293697","-76.92063","","","0","","America/Lima","0"
"500338","500338","La Doce","-12.0030911","-77.0076758","","","0","","America/Lima","0"
"500337","500337","Proceres","-12.0285658","-77.0119025","","","0","","America/Lima","0"
"500336","500336","TALARA","-12.0292402","-77.0154144","","","0","","America/Lima","0"
"500335","500335","15 Caja","-12.0293869","-77.0177119","","","0","","America/Lima","0"
"340","340","Guardia Republica2-SN","-12.2293097","-76.91992","","","0","","America/Lima","0"
"341","341","Universitaria(sur)1-NS","-12.23305","-76.9184","","","0","","America/Lima","0"
"342","342","Universitaria(sur)2-SN","-12.2327491","-76.9179008","","","0","","America/Lima","0"
"343","343","Lomas 1-NS","-12.2360519","-76.9164525","","","0","","America/Lima","0"
"344","344","Lomas 2-SN","-12.23597","-76.9159197","","","0","","America/Lima","0"
"345","345","Mercado mensajero de la Paz1-NS","-12.2400361","-76.9140386","","","0","","America/Lima","0"
"500345","500345","7 de Mariscal","-11.9467166","-76.9781694","","","0","","America/Lima","0"
"500344","500344","8 de Mariscal","-11.9440388","-76.9763166","","","0","","America/Lima","0"
"346","346","Mercado mensajero de la Paz2-SN","-12.2382797","-76.9144797","","","0","","America/Lima","0"
"347","347","Maria Reiche1-NS","-12.240398","-76.9131963","","","0","","America/Lima","0"
"500343","500343","La Posta","-11.9414694","-76.9745499","","","0","","America/Lima","0"
"500342","500342","Central","-11.9390416","-76.9731333","","","0","","America/Lima","0"
"348","348","Maria Reiche2-SN","-12.2402772","-76.9132661","","","0","","America/Lima","0"
"349","349","CJ1-NS","-12.231308","-76.9194416","","","0","","America/Lima","0"
"500806","500806","Carnaval y Moreyra","-12.0963169","-77.0251569","","","0","","America/Lima","0"
"350","350","CJ2-SN","-12.2312666","-76.9187608","","","0","","America/Lima","0"
"351","351","Ovalo Chama1-NS","-12.2329608","-76.9184719","","","0","","America/Lima","0"
"352","352","Ovalo Chama2-SN","-12.2331666","-76.9176166","","","0","","America/Lima","0"
"353","353","Ovalo Maria Reiche1-NS","-12.2401252","-76.9126919","","","0","","America/Lima","0"
"354","354","Ovalo Maria Reiche - SN","-12.2402691","-76.913308","","","0","","America/Lima","0"
"355","355","Av Lima1 - NS","-12.2387886","-76.9124291","","","0","","America/Lima","0"
"356","356","Av Lima2-SN","-12.2380336","-76.912708","","","0","","America/Lima","0"
"357","357","Jose Arteaga1-NS","-12.2342388","-76.9108277","","","0","","America/Lima","0"
"358","358","Jose Arteaga2-SN","-12.2337166","-76.9106305","","","0","","America/Lima","0"
"359","359","Benjamin2-SN","-12.2348719","-76.9116191","","","0","","America/Lima","0"
"10","10","La Molina - EO","-12.0709158","-76.9556697","","","0","","America/Lima","0"
"11","11","U. de Lima - EO","-12.08355","-76.9728","","","0","","America/Lima","0"
"12","12","Evitamiento - EO","-12.08459","-76.98014","","","0","","America/Lima","0"
"13","13","Circunvalacion - EO","-12.0850897","-76.98582","","","0","","America/Lima","0"
"14","14","Jimenez Borja - EO","-12.0858769","-76.9891647","","","0","","America/Lima","0"
"15","15","Rosa Toro - EO","-12.0863097","-76.9924758","","","0","","America/Lima","0"
"16","16","San Luis - EO","-12.0864627","-76.99639","","","0","","America/Lima","0"
"17","17","Aviacion 201 - EO","-12.0873858","-77.0030558","","","0","","America/Lima","0"
"18","18","Guardia Civil - EO","-12.0884177","-77.0073808","","","0","","America/Lima","0"
"19","19","Quinones - EO","-12.08976","-77.01578","","","0","","America/Lima","0"
"360","360","Panaderia universitaria - sn","-12.037565","-77.0774458","","","0","","America/Lima","0"
"361","361","Av. peru - sn","-12.032035","-77.077545","","","0","","America/Lima","0"
"362","362","Av. lima universitaria - sn","-12.0294638","-77.0766397","","","0","","America/Lima","0"
"363","363","Av. jose granda - sn","-12.0268419","-77.0755719","","","0","","America/Lima","0"
"364","364","Av. german aguirre - sn","-12.0193908","-77.0761169","","","0","","America/Lima","0"
"365","365","Av. tomas valle - sn","-12.0129188","-77.0793927","","","0","","America/Lima","0"
"366","366","Plaza vea universitaria - sn","-12.0108097","-77.0806572","","","0","","America/Lima","0"
"367","367","Av. angelica gamarra - sn","-12.0068638","-77.0821977","","","0","","America/Lima","0"
"368","368","Av. antunez de mayolo - sn","-11.9961408","-77.0838038","","","0","","America/Lima","0"
"369","369","Telefonica covida - sn","-11.995725","-77.0808827","","","0","","America/Lima","0"
"20","20","Arriola - EO","-12.0900641","-77.0181725","","","0","","America/Lima","0"
"21","21","Masias - EO","-12.0910397","-77.0253697","","","0","","America/Lima","0"
"22","22","Orquideas - EO","-12.0914047","-77.0279377","","","0","","America/Lima","0"
"23","23","Petit Thouars - EO","-12.0919697","-77.03194","","","0","","America/Lima","0"
"24","24","Arenales - EO","-12.0922369","-77.0338577","","","0","","America/Lima","0"
"25","25","Las Palmeras - EO","-12.0929097","-77.0384497","","","0","","America/Lima","0"
"26","26","Los Nogales - EO","-12.0938097","-77.04483","","","0","","America/Lima","0"
"27","27","Pershing - EO","-12.0944297","-77.04935","","","0","","America/Lima","0"
"28","28","Salaverry - EO","-12.09313","-77.05292","","","0","","America/Lima","0"
"29","29","Escobedo - EO","-12.09018","-77.0573397","","","0","","America/Lima","0"
"370","370","Mercado covida - sn","-11.9951038","-77.0765719","","","0","","America/Lima","0"
"371","371","Plaza vea covida - sn","-11.99426","-77.0722138","","","0","","America/Lima","0"
"372","372","Municipalidad de los olivos - s","-11.9914788","-77.0715027","","","0","","America/Lima","0"
"373","373","Telefonica palmeras - sn","-11.9892919","-77.0718397","","","0","","America/Lima","0"
"374","374","Pollos - sn","-11.9869","-77.0722058","","","0","","America/Lima","0"
"375","375","Av. los alisos - sn","-11.9840419","-77.0721188","","","0","","America/Lima","0"
"376","376","Posta - sn","-11.9819908","-77.0722027","","","0","","America/Lima","0"
"377","377","Av. naranjal - sn","-11.9787969","-77.0722427","","","0","","America/Lima","0"
"378","378","Panaderia palmeras - sn","-11.9747988","-77.0723297","","","0","","America/Lima","0"
"379","379","Av. rio maranon - sn","-11.9723027","-77.0724527","","","0","","America/Lima","0"
"30","30","Hospital Militar - EO","-12.0878597","-77.06082","","","0","","America/Lima","0"
"31","31","Sucre - EO","-12.08309","-77.0669597","","","0","","America/Lima","0"
"32","32","Bartolome Herrera - EO","-12.08087","-77.0730197","","","0","","America/Lima","0"
"33","33","Universitaria - EO","-12.07821","-77.0806697","","","0","","America/Lima","0"
"34","34","Parque de Las Leyendas - EO","-12.07793","-77.08831","","","0","","America/Lima","0"
"35","35","Rafael Escardo - EO","-12.07745","-77.0927897","","","0","","America/Lima","0"
"36","36","Marina - OE","-12.0737797","-77.10007","","","0","","America/Lima","0"
"37","37","Faucett - EO","-12.07164","-77.09865","","","0","","America/Lima","0"
"38","38","Faucett204-OE","-12.07451","-77.09967","","","0","","America/Lima","0"
"39","39","Rafael Escardo - OE","-12.0774","-77.09367","","","0","","America/Lima","0"
"380","380","Av. rio maranon universitaria - SN","-11.9719077","-77.0754677","","","0","","America/Lima","0"
"381","381","Ferreteria - sn","-11.968355","-77.0748127","","","0","","America/Lima","0"
"382","382","Colegio - sn","-11.9659586","-77.0737663","","","0","","America/Lima","0"
"383","383","Villa sol con universitaria - s","-11.9641808","-77.0719319","","","0","","America/Lima","0"
"384","384","Villa sol con panamericana - sn","-11.9593908","-77.0687658","","","0","","America/Lima","0"
"385","385","Yanbal - sn","-11.9547747","-77.0694797","","","0","","America/Lima","0"
"386","386","Santa luisa - sn","-11.9534169","-77.0697027","","","0","","America/Lima","0"
"387","387","Primera de pro - sn","-11.9380741","-77.0716175","","","0","","America/Lima","0"
"388","388","Segunda pro - sn","-11.9328194","-77.0721372","","","0","","America/Lima","0"
"389","389","Prolima - sn","-11.9279708","-77.0725758","","","0","","America/Lima","0"
"40","40","Parque de Las Leyendas - OE","-12.0782297","-77.0880997","","","0","","America/Lima","0"
"41","41","Universitaria - OE","-12.0782697","-77.0819997","","","0","","America/Lima","0"
"42","42","Bartolome Herrera - OE","-12.0808597","-77.0736897","","","0","","America/Lima","0"
"43","43","Sucre - OE","-12.0830597","-77.06753","","","0","","America/Lima","0"
"44","44","Hospital Militar - OE","-12.0883097","-77.06059","","","0","","America/Lima","0"
"45","45","Escobedo - OE","-12.08948","-77.0587797","","","0","","America/Lima","0"
"46","46","Salaverry - OE","-12.0923597","-77.05446","","","0","","America/Lima","0"
"47","47","Javier Prado(Pershing) - OE","-12.09448","-77.0512497","","","0","","America/Lima","0"
"48","48","Las Flores - OE","-12.09435","-77.0475897","","","0","","America/Lima","0"
"49","49","Los Cedros - OE","-12.0939097","-77.0442297","","","0","","America/Lima","0"
"390","390","Acobamba - sn","-11.9222227","-77.0731097","","","0","","America/Lima","0"
"391","391","Shangri-la - sn","-11.9136338","-77.0736819","","","0","","America/Lima","0"
"392","392","Los sauces - sn","-11.9082038","-77.0700647","","","0","","America/Lima","0"
"393","393","Tres ruedas - sn","-11.9009388","-77.0676158","","","0","","America/Lima","0"
"394","394","Escuela de policia - sn","-11.8953138","-77.0679469","","","0","","America/Lima","0"
"395","395","Establo - sn","-11.8903688","-77.0681977","","","0","","America/Lima","0"
"396","396","Famesa - sn","-11.8849158","-77.0685058","","","0","","America/Lima","0"
"397","397","Rosa luz - sn","-11.8802838","-77.0687838","","","0","","America/Lima","0"
"398","398","?cementerio - sn","-11.8723138","-77.0694358","","","0","","America/Lima","0"
"399","399","Tottus - sn","-11.8677777","-77.0723119","","","0","","America/Lima","0"
"50","50","Los Sauces - OE","-12.0930097","-77.03794","","","0","","America/Lima","0"
"51","51","Arenales - OE","-12.0925997","-77.0347197","","","0","","America/Lima","0"
"52","52","Parodi - OE","-12.0919797","-77.03067","","","0","","America/Lima","0"
"53","53","Orquideas - OE","-12.0916997","-77.0284097","","","0","","America/Lima","0"
"54","54","Masias - OE","-12.0914","-77.0261897","","","0","","America/Lima","0"
"55","55","Arriola - OE","-12.0901483","-77.0174161","","","0","","America/Lima","0"
"56","56","Guardia Civil - OE","-12.0888797","-77.0079197","","","0","","America/Lima","0"
"57","57","Aviacion - OE","-12.08852","-77.0047297","","","0","","America/Lima","0"
"58","58","San Luis - OE","-12.0873697","-76.9967997","","","0","","America/Lima","0"
"59","59","Rosa Toro - OE","-12.0868097","-76.99285","","","0","","America/Lima","0"
"60","60","Circunvalacion - OE","-12.08538","-76.9855797","","","0","","America/Lima","0"
"61","61","Jockey - OE","-12.0846719","-76.9780788","","","0","","America/Lima","0"
"62","62","U. de Lima - OE","-12.0838063","-76.9719044","","","0","","America/Lima","0"
"63","63","Camacho - OE","-12.0815297","-76.9672427","","","0","","America/Lima","0"
"64","64","Frutales - OE","-12.07595","-76.9637297","","","0","","America/Lima","0"
"65","65","Molina - OE","-12.07193","-76.9570997","","","0","","America/Lima","0"
"66","66","Ingenieros - OE","-12.06911","-76.9487697","","","0","","America/Lima","0"
"67","67","Flora Tristan - OE","-12.06705","-76.94414","","","0","","America/Lima","0"
"68","68","Huarochiri - OE","-12.0635397","-76.9385597","","","0","","America/Lima","0"
"69","69","Monumental - OE","-12.05887","-76.9379297","","","0","","America/Lima","0"
"70","70","Paris - OE","-12.0472","-76.93608","","","0","","America/Lima","0"
"71","71","Vista Alegre - OE","-12.0435997","-76.93075","","","0","","America/Lima","0"
"72","72","Holanda - OE","-12.0424197","-76.92604","","","0","","America/Lima","0"
"73","73","Berlin - OE","-12.03847","-76.9241097","","","0","","America/Lima","0"
"74","74","Ceres - OE","-12.0336077","-76.9259088","","","0","","America/Lima","0"
"75","75","Victor Malasquez  - EO","-12.0842519","-76.8773277","","","0","","America/Lima","0"
"76","76","Las Dunas - EO","-12.0849497","-76.8816997","","","0","","America/Lima","0"
"77","77","Sauces(Molina) - EO","-12.08524","-76.88602","","","0","","America/Lima","0"
"78","78","Madreselvas - EO","-12.08599","-76.8903097","","","0","","America/Lima","0"
"79","79","Naplo - EO","-12.08596","-76.89615","","","0","","America/Lima","0"
"80","80","La Punta - EO","-12.08591","-76.90003","","","0","","America/Lima","0"
"81","81","Monaco - EO","-12.086","-76.9071697","","","0","","America/Lima","0"
"82","82","El Sol - EO","-12.0858897","-76.9126797","","","0","","America/Lima","0"
"83","83","Rinconada del Lago - EO","-12.0851797","-76.9197497","","","0","","America/Lima","0"
"84","84","Laguna Grande - EO","-12.08502","-76.9237997","","","0","","America/Lima","0"
"85","85","Quesada - EO","-12.08407","-76.9273197","","","0","","America/Lima","0"
"86","86","Molicentro - EO","-12.0823","-76.92803","","","0","","America/Lima","0"
"91","91","Javier Prado(Molina SN) - EO","-12.07276","-76.9559797","","","0","","America/Lima","0"
"92","92","Aviacion 204 - EO","-12.0874208","-77.0027238","","","0","","America/Lima","0"
"97","97","Molicentro - OE","-12.08172","-76.9284797","","","0","","America/Lima","0"
"98","98","Parque - OE","-12.08496","-76.9266597","","","0","","America/Lima","0"
"99","99","Laguna Grande - OE","-12.0850897","-76.92422","","","0","","America/Lima","0"
"330396","330396","Dansey","-12.0477861","-77.0649469","","","0","","America/Lima","0"
"330397","330397","Argentina","-12.044903","-77.0652269","","","0","","America/Lima","0"
"330398","330398","Pedro Garezón","-12.041355","-77.0656419","","","0","","America/Lima","0"
"330399","330399","Duarez","-12.036665","-77.0660619","","","0","","America/Lima","0"
"330389","330389","Iquique","-12.0545488","-77.0436169","","","0","","America/Lima","0"
"330386","330386","Torre Ugarte","-12.08946","-77.033648","","","0","","America/Lima","0"
"330387","330387","Patio 1","-12.0271261","-77.0434738","","","0","","America/Lima","0"
"330388","330388","Chota","-12.0543161","-77.0404169","","","0","","America/Lima","0"
"330392","330392","Tingo María","-12.0554919","-77.0570838","","","0","","America/Lima","0"
"330393","330393","Naciones Unidas","-12.054228","-77.0612911","","","0","","America/Lima","0"
"330394","330394","Zorritos","-12.0490488","-77.0594211","","","0","","America/Lima","0"
"330395","330395","Galdeano y Mendoza","-12.048273","-77.061915","","","0","","America/Lima","0"
"330390","330390","Jorge Chavez","-12.0548588","-77.0472619","","","0","","America/Lima","0"
"330391","330391","Aguarico","-12.0551669","-77.050738","","","0","","America/Lima","0"
"330379","330379","Parque","-12.0223138","-77.030488","","","0","","America/Lima","0"
"330374","330374","COLEGIO","-12.0306469","-77.0314611","","","0","","America/Lima","0"
"330375","330375","Madrid","-12.0292419","-77.0309861","","","0","","America/Lima","0"
"330376","330376","Calle 1","-12.022805","-77.031118","","","0","","America/Lima","0"
"330377","330377","MONACO","-12.0076","-77.0362069","","","0","","America/Lima","0"
"330381","330381","Parque Zonal","-12.0149088","-77.030798","","","0","","America/Lima","0"
"330382","330382","Los Robles","-12.0126888","-77.031868","","","0","","America/Lima","0"
"330383","330383","Comisaria","-12.0101719","-77.0337838","","","0","","America/Lima","0"
"330384","330384","SALAMANCA","-12.0086549","-77.0350611","","","0","","America/Lima","0"
"330380","330380","Ferreyros","-12.0203661","-77.02856","","","0","","America/Lima","0"
"330367","330367","SALAVERRY","-12.1096511","-77.0293611","","","0","","America/Lima","0"
"330368","330368","RÍO DE JANEIRO","-12.1055761","-77.0300569","","","0","","America/Lima","0"
"330369","330369","ARAMBURÚ","-12.103615","-77.030405","","","0","","America/Lima","0"
"330363","330363","OVALO MIRAFLORES","-12.1192461","-77.0296111","","","0","","America/Lima","0"
"330365","330365","GENERAL VIDAL","-12.114723","-77.02851","","","0","","America/Lima","0"
"330366","330366","LIZARDO MONTERO","-12.1116961","-77.0290169","","","0","","America/Lima","0"
"330370","330370","LA HABANA","-12.0997519","-77.0310611","","","0","","America/Lima","0"
"330371","330371","JUAN DE ARONA","-12.0971211","-77.0314761","","","0","","America/Lima","0"
"330372","330372","TEODORO CÁRDENAS","-12.077885","-77.0342438","","","0","","America/Lima","0"
"330373","330373","RAMÓN DAGNINO","-12.0716699","-77.0351969","","","0","","America/Lima","0"
"810200","810200","POSTA B","-11.9370288","-76.9714369","","","0","","America/Lima","0"
"810201","810201","CAPILLA B","-11.9346588","-76.9697111","","","0","","America/Lima","0"
"810202","810202","PORTON B","-11.932438","-76.968253","","","0","","America/Lima","0"
"330356","330356","Complejo Deportivo","-12.0169761","-77.030793","","","0","","America/Lima","0"
"330357","330357","PEDRO CONDE","-12.0885411","-77.0337211","","","0","","America/Lima","0"
"330358","330358","MORRO DE ARICA","-12.0246188","-77.0361438","","","0","","America/Lima","0"
"330352","330352","Ovalo Gutierrez","-12.112918","-77.0367977","","","0","","America/Lima","0"
"330353","330353","Choquehuanca","-12.0992358","-77.0363722","","","0","","America/Lima","0"
"330355","330355","Saco Oliveros","-12.068545","-77.0356569","","","0","","America/Lima","0"
"330360","330360","LOS ALTOS","-12.0137261","-77.041585","","","0","","America/Lima","0"
"330361","330361","P. BERMUDEZ","-12.0719538","-77.037535","","","0","","America/Lima","0"
"330362","330362","GRAU","-12.119158","-77.0350799","","","0","","America/Lima","0"
"330349","330349","Paz Soldan","-12.0968441","-77.0356422","","","0","","America/Lima","0"
"330345","330345","Manuel del Pino","-12.07853","-77.0365377","","","0","","America/Lima","0"
"330346","330346","Leon Velarde","-12.0820125","-77.0360344","","","0","","America/Lima","0"
"330347","330347","Joaquin Bernal","-12.086828","-77.0353236","","","0","","America/Lima","0"
"330348","330348","Manuel Bañon","-12.0938561","-77.0348766","","","0","","America/Lima","0"
"330343","330343","Eduardo Dibos","-12.0199541","-77.0288241","","","0","","America/Lima","0"
"330344","330344","Cuba","-12.0743516","-77.0371747","","","0","","America/Lima","0"
"330350","330350","Pardo","-12.1184391","-77.0368691","","","0","","America/Lima","0"
"214101","214101","TGUIDO2","-12.0863977","-77.0287433","","","0","","America/Lima","0"
"330334","330334","Plaza Vea","-12.0418266","-77.022448","","","0","","America/Lima","0"
"330335","330335","Jr. Atahualpa","-12.0379955","-77.0266261","","","0","","America/Lima","0"
"330337","330337","Las Lomas","-12.0166575","-77.0427405","","","0","","America/Lima","0"
"330330","330330","22 de Agosto","-12.0349922","-77.0280313","","","0","","America/Lima","0"
"330331","330331","Sechura","-12.038235","-77.0289988","","","0","","America/Lima","0"
"330332","330332","Cajamarca","-12.0400311","-77.0283161","","","0","","America/Lima","0"
"330333","330333","Loreto","-12.042545","-77.0243988","","","0","","America/Lima","0"
"305008","305008","HUANCABAMBA - NS","-12.0665525","-77.0550558","","","0","","America/Lima","0"
"305009","305009","PLAZA DE LA BANDERA","-12.0672336","-77.0603619","","","0","","America/Lima","0"
"500253","500253","Mexico","-12.0759958","-77.0277","","","0","","America/Lima","0"
"500252","500252","Catolica","-12.0701244","-77.0283961","","","0","","America/Lima","0"
"500251","500251","Unanue","-12.0673152","-77.0286441","","","0","","America/Lima","0"
"500250","500250","28 De Julio","-12.0630386","-77.0293844","","","0","","America/Lima","0"
"305010","305010","PLAZA DE LA BANDERA - SN","-12.0674366","-77.05978","","","0","","America/Lima","0"
"500254","500254","Pardo de Zela","-12.0825108","-77.0283008","","","0","","America/Lima","0"
"305015","305015","BREÑA - SN","-12.0599","-77.0429972","","","0","","America/Lima","0"
"305011","305011","BARRANQUILLA - SN","-12.0667361","-77.0549272","","","0","","America/Lima","0"
"305012","305012","GRAL. VALERA - SN","-12.0663644","-77.0524891","","","0","","America/Lima","0"
"305014","305014","DON BOSCO - SN","-12.0604041","-77.0469838","","","0","","America/Lima","0"
"330433","330433","Nicolás de Piérola","-12.049538","-77.0388769","","","0","","America/Lima","0"
"500238","500238","Santa Rosa","-11.968015","-76.9935838","","","0","","America/Lima","0"
"500236","500236","San Martin","-11.9717469","-76.9963211","","","0","","America/Lima","0"
"330430","330430","Huaraz","-12.0565088","-77.0448611","","","0","","America/Lima","0"
"330431","330431","Alfonso Ugarte","-12.056333","-77.0426669","","","0","","America/Lima","0"
"330432","330432","Garcilaso de la Vega","-12.05601","-77.0388361","","","0","","America/Lima","0"
"500242","500242","Tupac Amaru","-12.0230611","-77.0076861","","","0","","America/Lima","0"
"500240","500240","Sedapal","-11.9797933","-77.0047672","","","0","","America/Lima","0"
"500244","500244","Ucayali","-12.0496583","-77.0277388","","","0","","America/Lima","0"
"800","800","Pisco-San Clemente con Perez Figuerola2","-13.7106897","-76.1988697","","","0","","America/Lima","0"
"801","801","Pisco-San Clemente con San Miguel2","-13.71405","-76.19907","","","0","","America/Lima","0"
"802","802","Pisco-Grifo Texaco2","-13.7174097","-76.1991297","","","0","","America/Lima","0"
"803","803","Pisco-Grifo Pretroamerica2","-13.7171697","-76.2049097","","","0","","America/Lima","0"
"804","804","Pisco-Grifo AVA2","-13.71659","-76.2129","","","0","","America/Lima","0"
"805","805","Pisco-Plaza San Andres","-13.7314697","-76.22328","","","0","","America/Lima","0"
"806","806","Pisco-Jardines","-13.7208","-76.22091","","","0","","America/Lima","0"
"807","807","Pisco-Quinones con Jose Galvez","-13.7143597","-76.21714","","","0","","America/Lima","0"
"808","808","Pisco-Quinones con Miguel Grau","-13.7118","-76.21688","","","0","","America/Lima","0"
"809","809","Pisco-Residencia","-13.7096697","-76.21644","","","0","","America/Lima","0"
"330426","330426","Ino","-12.0511761","-77.0547661","","","0","","America/Lima","0"
"330427","330427","Arica","-12.0549611","-77.0573369","","","0","","America/Lima","0"
"330428","330428","Yurua","-12.0540869","-77.0501511","","","0","","America/Lima","0"
"330429","330429","Loreto","-12.0568188","-77.0487238","","","0","","America/Lima","0"
"330422","330422","Materiales","-12.0400738","-77.065888","","","0","","America/Lima","0"
"330423","330423","Argentina","-12.0447269","-77.065413","","","0","","America/Lima","0"
"330424","330424","Naciones Unidas","-12.0482461","-77.0598488","","","0","","America/Lima","0"
"330425","330425","Zorritos","-12.0488719","-77.057208","","","0","","America/Lima","0"
"330420","330420","Pinar Del Rio","-12.0331469","-77.0650661","","","0","","America/Lima","0"
"330421","330421","Pérez de Tudela","-12.035678","-77.06611","","","0","","America/Lima","0"
"500273","500273","Lubricante","-11.9540552","-76.9901705","","","0","","America/Lima","0"
"328110","328110","Parque Zonal - NS","-12.0160588","-77.028843","","","0","","America/Lima","0"
"810","810","Pisco-Electro Dunas","-13.7096497","-76.21258","","","0","","America/Lima","0"
"811","811","Pisco-Ovalo","-13.70978","-76.20931","","","0","","America/Lima","0"
"328112","328112","Trujillo - NS","-12.0425911","-77.0286261","","","0","","America/Lima","0"
"812","812","812","-13.7093197","-76.2066597","","","0","","America/Lima","0"
"328111","328111","Prolongación Tacna - NS","-12.0325261","-77.0269088","","","0","","America/Lima","0"
"813","813","813","-13.7074897","-76.20462","","","0","","America/Lima","0"
"814","814","Pisco-Barrio Nuevo con Ayacucho","-13.7073997","-76.2015397","","","0","","America/Lima","0"
"815","815","Pisco-Barrio Nuevo con San Clemente","-13.7074997","-76.19898","","","0","","America/Lima","0"
"816","816","Pisco-Barrio nuevo con Ismael Aspillaga","-13.7073997","-76.1968997","","","0","","America/Lima","0"
"817","817","Pisco-San Clemente con Perez Figuerola","-13.71067","-76.19852","","","0","","America/Lima","0"
"818","818","Pisco-Barrio Nuevo con San Clemente2","-13.7075497","-76.19888","","","0","","America/Lima","0"
"330419","330419","Santa Fé","-12.0320561","-77.06678","","","0","","America/Lima","0"
"819","819","Pisco-Barrio Nuevo con Ayacucho2","-13.7073697","-76.20122","","","0","","America/Lima","0"
"330415","330415","Andahuaylas","-12.031398","-77.08295","","","0","","America/Lima","0"
"330416","330416","Abancay","-12.0317399","-77.0799361","","","0","","America/Lima","0"
"330417","330417","Villa Rica","-12.0319761","-77.074798","","","0","","America/Lima","0"
"330418","330418","San Salvador","-12.031953","-77.070305","","","0","","America/Lima","0"
"330411","330411","Ica","-12.0306599","-77.0947519","","","0","","America/Lima","0"
"330412","330412","Chiclayo","-12.030203","-77.093535","","","0","","America/Lima","0"
"330413","330413","Huancayo","-12.030598","-77.0900111","","","0","","America/Lima","0"
"330414","330414","Huancayo","-12.0310169","-77.0866288","","","0","","America/Lima","0"
"330410","330410","Cusco","-12.03382","-77.0963061","","","0","","America/Lima","0"
"820","820","Pisco-Alipio Ponce con Concordia2","-13.7071","-76.20426","","","0","","America/Lima","0"
"325073","325073","PIZARRO","-12.0391611","-77.0323305","","","0","","America/Lima","0"
"821","821","Pisco-Alipio Ponce con Bolognesi2","-13.7092297","-76.2065597","","","0","","America/Lima","0"
"822","822","Pisco-Ovalo2","-13.70968","-76.2091497","","","0","","America/Lima","0"
"305004","305004","MUNICIPALIDAD - NS","-12.0587194","-77.0462397","","","0","","America/Lima","0"
"325076","325076","ALCAZAR","-12.0323388","-77.02785","","","0","","America/Lima","0"
"305005","305005","OLMEDO - NS","-12.0599816","-77.0484116","","","0","","America/Lima","0"
"823","823","Pisco-Electro Dunas2","-13.70958","-76.21254","","","0","","America/Lima","0"
"824","824","Pisco-Residencia2","-13.70944","-76.2161797","","","0","","America/Lima","0"
"325077","325077","LAS CALEZAS","-12.0289111","-77.0309694","","","0","","America/Lima","0"
"328103","328103","Los Proceres - NS","-12.034458","-77.0394169","","","0","","America/Lima","0"
"305006","305006","RESTAURACION","-12.0623297","-77.0504041","","","0","","America/Lima","0"
"825","825","Pisco-Quinones con Miguel Grau2","-13.7117197","-76.21689","","","0","","America/Lima","0"
"305007","305007","CASTROVIRREYNA - NS","-12.0654175","-77.0529944","","","0","","America/Lima","0"
"328102","328102","Calle 2 - NS","-12.0232261","-77.0314361","","","0","","America/Lima","0"
"325078","325078","ARANCIBIA","-12.0273888","-77.0327388","","","0","","America/Lima","0"
"325079","325079","Amancaes - SN","-12.0264111","-77.0338111","","","0","","America/Lima","0"
"826","826","Pisco-Quinones con Jose Galvez2","-13.7142197","-76.2171797","","","0","","America/Lima","0"
"827","827","Pisco-Jardines2","-13.72058","-76.22095","","","0","","America/Lima","0"
"328104","328104","Manco Inca - NS","-12.0334863","-77.0426058","","","0","","America/Lima","0"
"828","828","Pisco-Plaza San Andres2","-13.7314697","-76.22328","","","0","","America/Lima","0"
"305003","305003","IQUIQUE - NS","-12.0595525","-77.0434305","","","0","","America/Lima","0"
"829","829","Chincha-Casa Andina","-13.4139672","-76.1492713","","","0","","America/Lima","0"
"330408","330408","Faucett","-12.0385769","-77.0988469","","","0","","America/Lima","0"
"330409","330409","Quilca","-12.0366199","-77.0989838","","","0","","America/Lima","0"
"330404","330404","Iquitos","-12.0308619","-77.085103","","","0","","America/Lima","0"
"330405","330405","Huancayo","-12.0303861","-77.0893769","","","0","","America/Lima","0"
"330406","330406","Salavaerry","-12.0299419","-77.09375","","","0","","America/Lima","0"
"330407","330407","Calle 1","-12.033103","-77.0961238","","","0","","America/Lima","0"
"330400","330400","Peru","-12.0325","-77.064865","","","0","","America/Lima","0"
"330401","330401","Santo Domingo","-12.0316819","-77.0709361","","","0","","America/Lima","0"
"330402","330402","Villa Rica","-12.0317211","-77.073938","","","0","","America/Lima","0"
"330403","330403","Camaná","-12.0313869","-77.0808769","","","0","","America/Lima","0"
"830","830","Chincha-Soyuz","-13.4160597","-76.1405797","","","0","","America/Lima","0"
"831","831","Chincha-Grifo El Volante","-13.42495","-76.1345797","","","0","","America/Lima","0"
"832","832","Chincha-Restaurant El Batan","-13.4346086","-76.1346577","","","0","","America/Lima","0"
"833","833","Chincha-Textil del Valle (Ca Pedregal)","-13.4513897","-76.1363","","","0","","America/Lima","0"
"834","834","Chincha-Campo Deportivo El Collazos","-13.5384297","-76.13271","","","0","","America/Lima","0"
"835","835","Chincha-Campo Deportivo El Collazos2","-13.5388997","-76.1325197","","","0","","America/Lima","0"
"836","836","Chincha-Textil del Valle (Ca Pedregal)2","-13.4514397","-76.13621","","","0","","America/Lima","0"
"837","837","Chincha-Restaurant El Batan2","-13.43491","-76.13455","","","0","","America/Lima","0"
"838","838","Chincha-Grifo El Volante2","-13.42497","-76.1344697","","","0","","America/Lima","0"
"839","839","Chincha-Soyuz2","-13.4159697","-76.14055","","","0","","America/Lima","0"
"301099","301099","Saco Oliveros - SN","-12.0682472","-77.0381083","","","0","","America/Lima","0"
"840","840","Chincha-Casa Andina2","-13.41389","-76.1492097","","","0","","America/Lima","0"
"842","842","Paracas-Hotel Golf","-13.84021","-76.2566997","","","0","","America/Lima","0"
"843","843","Pisco-Santa Cruz","-13.8324597","-76.1400697","","","0","","America/Lima","0"
"845","845","Pisco-Santa Cruz2","-13.83247","-76.1399497","","","0","","America/Lima","0"
"846","846","Paracas-Hotel Golf2","-13.8402297","-76.2567597","","","0","","America/Lima","0"
"514474","514474","Kr 28D9 entre Cl 122J y 122K","3.4037797","-76.47237","","","0","","America/Lima","0"
"301071","301071","EMANCIPACION","-12.046678","-77.0375369","","","0","","America/Lima","0"
"851","851","PEAJE ANCON","-11.7476769","-77.1437138","","","0","","America/Lima","0"
"852","852","CHANCAY","-11.56095","-77.2660097","","","0","","America/Lima","0"
"301072","301072","CALLAO","-12.0437719","-77.035578","","","0","","America/Lima","0"
"853","853","RIO SECO","-11.4181397","-77.3712697","","","0","","America/Lima","0"
"854","854","HILARIÃ“N","-11.2633769","-77.3352319","","","0","","America/Lima","0"
"855","855","SAYAN","-11.1455308","-77.2447527","","","0","","America/Lima","0"
"856","856","COCHAMARCA","-11.0080247","-77.0762188","","","0","","America/Lima","0"
"857","857","CHEVES","-10.8845969","-76.9751808","","","0","","America/Lima","0"
"858","858","CHURIN","-10.81071","-76.8757158","","","0","","America/Lima","0"
"859","859","VIROC","-10.6854038","-76.7965788","","","0","","America/Lima","0"
"2144","2144","Jorge Chavez/Roosevelt","-12.1469958","-77.0115797","","","0","","America/Lima","0"
"2143","2143","Ovalo Higrereta NS","-12.1280208","-77.00095","","","0","","America/Lima","0"
"2142","2142","Santa Catalina/ Canada","-12.0820027","-77.0173947","","","0","","America/Lima","0"
"2141","2141","Vivanco/Brasil","-12.0804108","-77.0586297","","","0","","America/Lima","0"
"2140","2140","Agarcia/Venezuela","-12.0541988","-77.0777177","","","0","","America/Lima","0"
"2139","2139","Universitaria/tomas valle","-12.0121319","-77.0803247","","","0","","America/Lima","0"
"860","860","OYON","-10.6741158","-76.7652727","","","0","","America/Lima","0"
"2138","2138","Palmeras/naranjal","-11.9777797","-77.07246","","","0","","America/Lima","0"
"862","862","PEAJE ANCON","-11.7472719","-77.1436547","","","0","","America/Lima","0"
"2137","2137","Panamerica Norte","-11.9303877","-77.07125","","","0","","America/Lima","0"
"863","863","CHANCAY","-11.5609369","-77.2660988","","","0","","America/Lima","0"
"864","864","RIO SECO","-11.4181977","-77.3715847","","","0","","America/Lima","0"
"865","865","HILARION","-11.2633447","-77.3352797","","","0","","America/Lima","0"
"866","866","SAYAN","-11.1451627","-77.2445458","","","0","","America/Lima","0"
"867","867","COCHAMARCA","-11.0080027","-77.0762708","","","0","","America/Lima","0"
"868","868","CHEVES","-10.8845719","-76.9751897","","","0","","America/Lima","0"
"869","869","CHURIN","-10.8106008","-76.8757597","","","0","","America/Lima","0"
"2155","2155","Universitaria / Av Peru","-12.0320669","-77.0775758","","","0","","America/Lima","0"
"2154","2154","La mar/ Universitaria","-12.0748858","-77.07939","","","0","","America/Lima","0"
"2153","2153","JP Zela/ Arequipa","-12.0834947","-77.03445","","","0","","America/Lima","0"
"2152","2152","Aviacion/San Borja","-12.1012419","-77.00157","","","0","","America/Lima","0"
"2151","2151","Marsano/Ayacucho","-12.1349772","-76.9971869","","","0","","America/Lima","0"
"2150","2150","Parque de Barranco","-12.1493469","-77.0208333","","","0","","America/Lima","0"
"870","870","VIROC","-10.6853427","-76.7965808","","","0","","America/Lima","0"
"871","871","OYON","-10.6740777","-76.7652119","","","0","","America/Lima","0"
"2149","2149","La Chira","-12.1905844","-77.006478","","","0","","America/Lima","0"
"872","872","ISCAYCRUZ","-10.7650277","-76.7435477","","","0","","America/Lima","0"
"2148","2148","La olla","-12.2020219","-77.0048747","","","0","","America/Lima","0"
"2146","2146","Alameda Sur / Ballesta","-12.2058808","-77.0176238","","","0","","America/Lima","0"
"2145","2145","Huaylas/ Olaya","-12.1671977","-77.02576","","","0","","America/Lima","0"
"325022","325022","MORRO ARICA  -  SN","-12.0235147","-77.0374258","","","0","","America/Lima","0"
"327200","327200","JVPRA","-12.0921305","-77.0345694","","","0","","America/Lima","0"
"325006","325006","CHIRA","-12.0369869","-77.0309711","","","0","","America/Lima","0"
"325007","325007","VIRU","-12.0395194","-77.0329111","","","0","","America/Lima","0"
"325008","325008","ICA","-12.0450588","-77.0364219","","","0","","America/Lima","0"
"325009","325009","MOQUEGUA","-12.0469019","-77.0380269","","","0","","America/Lima","0"
"2166","2166","Plaza Norte NS 1","-12.0065458","-77.0619408","","","0","","America/Lima","0"
"2165","2165","Senati NS 1","-11.9988658","-77.0627938","","","0","","America/Lima","0"
"2164","2164","Primera de Pro NS 1","-11.93608","-77.0719897","","","0","","America/Lima","0"
"2163","2163","Puente Nuevo EO 1","-12.0290108","-76.9979847","","","0","","America/Lima","0"
"2162","2162","Mapfre EO 1","-12.0179208","-76.9111588","","","0","","America/Lima","0"
"2161","2161","Zoologico EO 1","-12.0157827","-76.8992108","","","0","","America/Lima","0"
"2160","2160","Santa Clara EO 1","-12.0143138","-76.8851569","","","0","","America/Lima","0"
"2159","2159","Entrada Huaycan EO 1","-12.0002397","-76.83847","","","0","","America/Lima","0"
"400","400","Inca2-SN","-12.225733","-76.9232441","","","0","","America/Lima","0"
"2158","2158","AV los Incas SN","-11.9108838","-77.0561697","","","0","","America/Lima","0"
"401","401","Parque Chuquitana NS","-11.9559969","-77.0990416","","","0","","America/Lima","0"
"2157","2157","Panamericana/ San Genaro","-11.9570588","-77.06914","","","0","","America/Lima","0"
"402","402","Parque Chuquitana SN","-11.9560638","-77.1004305","","","0","","America/Lima","0"
"2156","2156","Mayolo / Izaguirre","-11.9916158","-77.0714897","","","0","","America/Lima","0"
"403","403","Paramonga NS","-11.9591055","-77.0972416","","","0","","America/Lima","0"
"336141","336141","CAGUA","-12.0282194","-77.0193166","","","0","","America/Lima","0"
"404","404","Paramonga SN","-11.9593805","-77.0968527","","","0","","America/Lima","0"
"405","405","Mercado Chuquitana NS","-11.9610747","-77.0951941","","","0","","America/Lima","0"
"301065","301065","E.FERNANDEZ","-12.073665","-77.0359861","","","0","","America/Lima","0"
"406","406","Mercado Chuquitana SN","-11.9612997","-77.0948691","","","0","","America/Lima","0"
"407","407","Tranquera NS","-11.965175","-77.0916777","","","0","","America/Lima","0"
"301068","301068","ESPAÑA","-12.0587619","-77.0378888","","","0","","America/Lima","0"
"408","408","Tranquera SN","-11.9654055","-77.0913777","","","0","","America/Lima","0"
"301069","301069","BOLIVIA","-12.0552805","-77.0383888","","","0","","America/Lima","0"
"409","409","Llatas NS","-11.9700638","-77.087158","","","0","","America/Lima","0"
"301026","301026","WASHINGTON - SN","-12.060225","-77.0395138","","","0","","America/Lima","0"
"301027","301027","MALI - SN","-12.0599841","-77.0368997","","","0","","America/Lima","0"
"2177","2177","Av. La Marina -NS 1","-12.0777677","-77.0816069","","","0","","America/Lima","0"
"2176","2176","Av. Angelica Gamarra - ns 1","-12.0064022","-77.0826152","","","0","","America/Lima","0"
"2175","2175","Av. Carlos Izaguirre-ns 1","-11.9909688","-77.0717977","","","0","","America/Lima","0"
"2174","2174","Fundicion-ns 1","-11.8335297","-77.11359","","","0","","America/Lima","0"
"2173","2173","Mapfre OE 1","-12.0186369","-76.91212","","","0","","America/Lima","0"
"2172","2172","Jiron Puno OE 1","-12.0535158","-77.0295719","","","0","","America/Lima","0"
"2171","2171","Leticia OE 1","-12.0570647","-77.0300277","","","0","","America/Lima","0"
"2170","2170","28 de Julio OE 1","-12.0647338","-77.0381319","","","0","","America/Lima","0"
"410","410","Llatas SN","-11.970183","-77.0868666","","","0","","America/Lima","0"
"411","411","Avenida A SN","-11.9636247","-77.0834788","","","0","","America/Lima","0"
"2169","2169","Pista Nueva EO 1","-12.0115705","-76.8765411","","","0","","America/Lima","0"
"412","412","MaraÃ±on2 SN","-11.9675277","-77.0837888","","","0","","America/Lima","0"
"2168","2168","Puente Nuevo OE 1","-12.0304694","-77.0010816","","","0","","America/Lima","0"
"413","413","San Nicolas 1 - NS","-11.9556552","-77.1000219","","","0","","America/Lima","0"
"414","414","Ferreteria 1 -NS","-11.956908","-77.0996413","","","0","","America/Lima","0"
"2167","2167","Caqueta SN 1","-12.0367597","-77.0433297","","","0","","America/Lima","0"
"415","415","Grifo Ariana 1 -NS","-11.962308","-77.0940858","","","0","","America/Lima","0"
"416","416","Mi Banco1-NS","-11.9666441","-77.0904802","","","0","","America/Lima","0"
"417","417","La Hacienda 1 - NS","-11.9684469","-77.0890275","","","0","","America/Lima","0"
"418","418","Ov Chepen 1 - NS","-12.2402886","-76.9131052","","","0","","America/Lima","0"
"325001","325001","AMANCAES","-12.0260111","-77.0340305","","","0","","America/Lima","0"
"419","419","Ov Chepen 2 - SN","-12.2402691","-76.913308","","","0","","America/Lima","0"
"325002","325002","LA COLONIA","-12.0278694","-77.0325111","","","0","","America/Lima","0"
"325003","325003","MADRID","-12.0294305","-77.0307805","","","0","","America/Lima","0"
"325004","325004","LEONCIO PRADO","-12.03245","-77.0280111","","","0","","America/Lima","0"
"325005","325005","G. REPUBLICANA","-12.0351211","-77.0297911","","","0","","America/Lima","0"
"2180","2180","Panaderia Universitaria SN 1","-12.0370747","-77.0774277","","","0","","America/Lima","0"
"2188","2188","Armando Blondet NS","-11.9669747","-77.0701983","","","0","","America/Lima","0"
"2187","2187","Gerardo Unger NS","-11.9299308","-77.0693588","","","0","","America/Lima","0"
"2186","2186","Walon NS","-11.9243858","-77.0640758","","","0","","America/Lima","0"
"2185","2185","Los Incas NS","-11.9103797","-77.0562508","","","0","","America/Lima","0"
"2184","2184","Hacienda NS","-11.9053827","-77.053425","","","0","","America/Lima","0"
"2183","2183","San Felipe NS","-11.8961669","-77.048275","","","0","","America/Lima","0"
"2182","2182","Av. Los Alisos SN- 1","-11.98442","-77.07196","","","0","","America/Lima","0"
"2181","2181","Municipalidad de los Olivos sn 1","-11.99177","-77.0714897","","","0","","America/Lima","0"
"420","420","Universitaria 2 - SN","-11.9792886","-77.0771802","","","0","","America/Lima","0"
"421","421","Horacio -EO","-12.0045808","-76.8443977","","","0","","America/Lima","0"
"422","422","La Hacienda 2 - SN","-11.9684858","-77.0888219","","","0","","America/Lima","0"
"423","423","Grifo Ariana 2 - SN","-11.9625636","-77.0936802","","","0","","America/Lima","0"
"2179","2179","Av. Colonial SN 1","-12.0509119","-77.0779608","","","0","","America/Lima","0"
"424","424","Hospital 1 - SN","-12.2329136","-76.9333469","","","0","","America/Lima","0"
"425","425","Ferreteria 2 - SN","-11.9568691","-77.0992886","","","0","","America/Lima","0"
"2178","2178","Av. La Marina - SN 1","-12.07892","-77.0813347","","","0","","America/Lima","0"
"426","426","San Nicolas 2 - SN","-11.9557302","-77.1000302","","","0","","America/Lima","0"
"427","427","Av. Los Olivos 1 - NS","-11.9776363","-77.0927702","","","0","","America/Lima","0"
"428","428","Los Alisos Canta Callao 1 - NS","-11.9811969","-77.0967941","","","0","","America/Lima","0"
"429","429","Sanra Rosa Canta Callao 1 - NS","-11.9835274","-77.0995636","","","0","","America/Lima","0"
"2191","2191","Sucre NS","-12.0787858","-77.0656933","","","0","","America/Lima","0"
"2190","2190","Juan Valer NS","-12.0762213","-77.0743366","","","0","","America/Lima","0"
"2199","2199","Manuel Villaran NS","-12.1197558","-76.9984669","","","0","","America/Lima","0"
"500206","500206","La Quince","-11.9627877","-76.9897655","","","0","","America/Lima","0"
"2198","2198","Angamos NS","-12.1114097","-77.00046","","","0","","America/Lima","0"
"500204","500204","La ocho","-11.9755661","-77.0014361","","","0","","America/Lima","0"
"2197","2197","San Borja Sur NS","-12.1005458","-77.0019097","","","0","","America/Lima","0"
"2196","2196","Javier Prado NS","-12.0871377","-77.003915","","","0","","America/Lima","0"
"2195","2195","Petith Thouarse NS","-12.0834727","-77.0336647","","","0","","America/Lima","0"
"2194","2194","Arenales NS","-12.0838108","-77.0359419","","","0","","America/Lima","0"
"500209","500209","Los Postes","-11.9961561","-77.010153","","","0","","America/Lima","0"
"2193","2193","Canada NS","-12.0849408","-77.0442277","","","0","","America/Lima","0"
"500208","500208","Lima","-12.0253599","-77.0098369","","","0","","America/Lima","0"
"2192","2192","Salaverry NS","-12.0823427","-77.0461669","","","0","","America/Lima","0"
"430","430","Izaguirre Canta Callao 1 - NS","-11.9882311","-77.104808","","","0","","America/Lima","0"
"431","431","Dominicos 1 - NS","-11.990818","-77.1073561","","","0","","America/Lima","0"
"432","432","Pacasmayo 1 - NS","-11.9944969","-77.1107608","","","0","","America/Lima","0"
"433","433","Bertello 1 - NS","-11.9969413","-77.1130525","","","0","","America/Lima","0"
"434","434","Faucett Canta Callao 1 - NS","-12.0004358","-77.1164469","","","0","","America/Lima","0"
"435","435","Naval 1 - NS","-12.0031691","-77.1154497","","","0","","America/Lima","0"
"500211","500211","Mariategui","-11.94314","-76.9820361","","","0","","America/Lima","0"
"2189","2189","Maranon NS","-11.9716072","-77.0726508","","","0","","America/Lima","0"
"436","436","Las Torres - EO","-12.0160208","-76.8958269","","","0","","America/Lima","0"
"437","437","Zoologico - EO","-12.0157258","-76.8992977","","","0","","America/Lima","0"
"301010","301010","ILO","-12.0517688","-77.038753","","","0","","America/Lima","0"
"438","438","Outlet 1 -NS","-12.0186108","-77.1079052","","","0","","America/Lima","0"
"439","439","Aduanas 1 -NS","-12.0253775","-77.1045136","","","0","","America/Lima","0"
"301013","301013","HUANCAYO","-12.0615338","-77.0378438","","","0","","America/Lima","0"
"301014","301014","SACO OLIVEROS","-12.0686258","-77.0367741","","","0","","America/Lima","0"
"301017","301017","E.VILLAR","-12.076488","-77.0357588","","","0","","America/Lima","0"
"301018","301018","M.SEGURA","-12.079453","-77.0353049","","","0","","America/Lima","0"
"301015","301015","R. DAGNINO","-12.0714461","-77.0363288","","","0","","America/Lima","0"
"301016","301016","CUBA","-12.0742769","-77.0360969","","","0","","America/Lima","0"
"440","440","Lima Cargo 1 - NS","-12.0290108","-77.1024886","","","0","","America/Lima","0"
"441","441","Hiunday - EO","-12.02115","-76.9293508","","","0","","America/Lima","0"
"442","442","San Ignacio - EO","-12.020725","-76.9344847","","","0","","America/Lima","0"
"443","443","Quilca 1 - NS","-12.0345691","-77.0998386","","","0","","America/Lima","0"
"500202","500202","La Hacienda","-12.0056938","-77.0063638","","","0","","America/Lima","0"
"444","444","Independencia (Mor. Duar) 1 -NS","-12.0396191","-77.0966858","","","0","","America/Lima","0"
"445","445","12 de Octubre 1 -NS","-12.03865","-77.0915747","","","0","","America/Lima","0"
"446","446","Mercado de Flores - EO","-12.0402219","-77.0166477","","","0","","America/Lima","0"
"500200","500200","La cuatro","-11.9505588","-76.987168","","","0","","America/Lima","0"
"447","447","Olaya 1 - NS","-12.038208","-77.0892469","","","0","","America/Lima","0"
"448","448","Polideportivo 1- NS","-12.0365163","-77.0805441","","","0","","America/Lima","0"
"449","449","Universitaria (Moral.Duarez) 1 - NS","-12.036133","-77.0784025","","","0","","America/Lima","0"
"500226","500226","Plaza Bolognesi","-12.0609455","-77.0419372","","","0","","America/Lima","0"
"450","450","Rodriguez de Mendoza 1 -NS","-12.0357747","-77.0764413","","","0","","America/Lima","0"
"451","451","Habich - SN","-12.0299927","-77.0569061","","","0","","America/Lima","0"
"452","452","Universitaria (Morl. Duarez) 2 - SN","-12.0359572","-77.0789263","","","0","","America/Lima","0"
"453","453","Polideportivo 2 -SN","-12.036503","-77.0816141","","","0","","America/Lima","0"
"454","454","Olaya 2 - SN","-12.0380688","-77.0896711","","","0","","America/Lima","0"
"455","455","Fiori - SN","-12.009325","-77.0608547","","","0","","America/Lima","0"
"456","456","12 de Octubre 2 - SN","-12.038305","-77.0910069","","","0","","America/Lima","0"
"457","457","Independencia (Mor. Duar) 2 - SN","-12.0397686","-77.0984416","","","0","","America/Lima","0"
"458","458","Quilca 2 - SN","-12.0364244","-77.0991888","","","0","","America/Lima","0"
